[{"@type": "SensorSystem", "id": "SN80740", "name": "REIP\u00c5", "shortName": "Reip\u00e5", "country": "Norge", "countryCode": "NO", "wmoId": 1114, "geometry": {"@type": "Point", "coordinates": [13.646, 66.9035], "nearest": false}, "masl": 9, "validFrom": "1995-07-01T00:00:00.000Z", "county": "NORDLAND", "countyId": 18, "municipality": "MEL\u00d8Y", "municipalityId": 1837, "stationHolders": ["MET.NO"], "externalIds": ["01114", "10.249.0.116"], "wigosId": "0-20000-0-01114"}, {"@type": "SensorSystem", "id": "SN61630", "name": "BJORLI", "shortName": "Bjorli", "country": "Norge", "countryCode": "NO", "wmoId": 1230, "geometry": {"@type": "Point", "coordinates": [8.2, 62.2583], "nearest": false}, "masl": 579, "validFrom": "2010-02-22T00:00:00.000Z", "county": "INNLANDET", "countyId": 34, "municipality": "LESJA", "municipalityId": 3432, "stationHolders": ["BANE NOR"], "externalIds": ["01230", "10.249.0.95"], "wigosId": "0-20000-0-01230"}, {"@type": "SensorSystem", "id": "SN85450", "name": "SVOLV\u00c6R LUFTHAVN", "shortName": "Svolv\u00e6r LH", "country": "Norge", "countryCode": "NO", "wmoId": 1161, "geometry": {"@type": "Point", "coordinates": [14.6693, 68.2453], "nearest": false}, "masl": 9, "validFrom": "1972-06-01T00:00:00.000Z", "county": "NORDLAND", "countyId": 18, "municipality": "V\u00c5GAN", "municipalityId": 1865, "stationHolders": ["AVINOR"], "externalIds": ["01161", "10.249.0.18", "ENSH"], "icaoCodes": ["ENSH"], "wigosId": "0-20000-0-01161"}, {"@type": "SensorSystem", "id": "SN47260", "name": "HAUGESUND LUFTHAVN", "shortName": "Haugesund LH", "country": "Norge", "countryCode": "NO", "wmoId": 1408, "geometry": {"@type": "Point", "coordinates": [5.2115, 59.3445], "nearest": false}, "masl": 24, "validFrom": "1975-04-01T00:00:00.000Z", "county": "ROGALAND", "countyId": 11, "municipality": "KARM\u00d8Y", "municipalityId": 1149, "stationHolders": ["AVINOR"], "externalIds": ["01408", "10.249.0.63", "ENHD"], "icaoCodes": ["ENHD"], "wigosId": "0-20000-0-01408"}, {"@type": "SensorSystem", "id": "SN71780", "name": "\u00c5FJORD II", "shortName": "\u00c5fjord", "country": "Norge", "countryCode": "NO", "wmoId": 1242, "geometry": {"@type": "Point", "coordinates": [10.2237, 63.9678], "nearest": false}, "masl": 30, "validFrom": "2007-11-29T00:00:00.000Z", "county": "TR\u00d8NDELAG", "countyId": 50, "municipality": "\u00c5FJORD", "municipalityId": 5058, "stationHolders": ["MET.NO"], "externalIds": ["01242", "10.249.0.162"], "wigosId": "0-20000-0-01242"}, {"@type": "SensorSystem", "id": "SN62270", "name": "MOLDE LUFTHAVN", "shortName": "Molde LH", "country": "Norge", "countryCode": "NO", "wmoId": 1217, "geometry": {"@type": "Point", "coordinates": [7.2617, 62.7443], "nearest": false}, "masl": 3, "validFrom": "1972-03-01T00:00:00.000Z", "county": "M\u00d8RE OG ROMSDAL", "countyId": 15, "municipality": "MOLDE", "municipalityId": 1506, "stationHolders": ["AVINOR"], "externalIds": ["01217", "10.249.0.60", "ENML"], "icaoCodes": ["ENML"], "wigosId": "0-20000-0-01217"}, {"@type": "SensorSystem", "id": "SN97251", "name": "KARASJOK - MARKANNJARGA", "shortName": "Karasjok", "country": "Norge", "countryCode": "NO", "wmoId": 1065, "geometry": {"@type": "Point", "coordinates": [25.5023, 69.4635], "nearest": false}, "masl": 131, "validFrom": "2004-07-08T00:00:00.000Z", "county": "TROMS OG FINNMARK", "countyId": 54, "municipality": "KARASJOK", "municipalityId": 5437, "stationHolders": ["MET.NO"], "externalIds": ["01065", "10.249.0.20", "10.249.0.221"], "wigosId": "0-20000-0-01065"}, {"@type": "SensorSystem", "id": "SN59680", "name": "\u00d8RSTA-VOLDA LUFTHAMN", "shortName": "\u00d8rsta-Volda LH", "country": "Norge", "countryCode": "NO", "wmoId": 1209, "geometry": {"@type": "Point", "coordinates": [6.0807, 62.181], "nearest": false}, "masl": 74, "validFrom": "1971-06-01T00:00:00.000Z", "county": "M\u00d8RE OG ROMSDAL", "countyId": 15, "municipality": "\u00d8RSTA", "municipalityId": 1520, "stationHolders": ["AVINOR"], "externalIds": ["01209", "10.249.0.153", "10.249.0.58", "ENOV"], "icaoCodes": ["ENOV"], "wigosId": "0-20000-0-01209"}, {"@type": "SensorSystem", "id": "SN27420", "name": "TJ\u00d8ME", "shortName": "Tj\u00f8me", "country": "Norge", "countryCode": "NO", "geometry": {"@type": "Point", "coordinates": [10.398, 59.1208], "nearest": false}, "masl": 32, "validFrom": "2016-06-20T00:00:00.000Z", "county": "VESTFOLD OG TELEMARK", "countyId": 38, "municipality": "F\u00c6RDER", "municipalityId": 3811, "stationHolders": ["F\u00c6RDER KOMMUNE"], "externalIds": ["10.249.1.71,"], "wigosId": "0-578-0-27420"}, {"@type": "SensorSystem", "id": "SN57000", "name": "F\u00d8RDE LH - BRINGELAND", "shortName": "F\u00f8rde LH", "country": "Norge", "countryCode": "NO", "wmoId": 1323, "geometry": {"@type": "Point", "coordinates": [5.76, 61.391], "nearest": false}, "masl": 321, "validFrom": "1987-01-01T00:00:00.000Z", "county": "VESTLAND", "countyId": 46, "municipality": "SUNNFJORD", "municipalityId": 4647, "stationHolders": ["AVINOR"], "externalIds": ["01323", "10.249.0.21", "ENBL"], "icaoCodes": ["ENBL"], "wigosId": "0-20000-0-01323"}, {"@type": "SensorSystem", "id": "SN99760", "name": "SVEAGRUVA", "shortName": "Sveagruva", "country": "Svalbard og Jan Mayen", "countryCode": "SJ", "wmoId": 1005, "geometry": {"@type": "Point", "coordinates": [16.72, 77.8953], "nearest": false}, "masl": 9, "validFrom": "1978-05-01T00:00:00.000Z", "county": "SVALBARD", "countyId": 21, "municipality": "SVALBARD", "municipalityId": 2100, "stationHolders": ["STORE NORSKE SPITSBERGEN KULKOMPANI AS"], "externalIds": ["1005", "10.249.0.29", "ENSA"], "icaoCodes": ["ENSA"], "wigosId": "0-744-0-99760"}, {"@type": "SensorSystem", "id": "SN64330", "name": "KRISTIANSUND LUFTHAVN", "shortName": "Kristiansund LH", "country": "Norge", "countryCode": "NO", "wmoId": 1223, "geometry": {"@type": "Point", "coordinates": [7.8158, 63.1093], "nearest": false}, "masl": 62, "validFrom": "1970-06-01T00:00:00.000Z", "county": "M\u00d8RE OG ROMSDAL", "countyId": 15, "municipality": "KRISTIANSUND", "municipalityId": 1505, "stationHolders": ["AVINOR"], "externalIds": ["01223", "10.249.0.12", "ENKB"], "icaoCodes": ["ENKB"], "wigosId": "0-20000-0-01223"}, {"@type": "SensorSystem", "id": "SN51530", "name": "VOSSEVANGEN", "shortName": "Vossevangen", "country": "Norge", "countryCode": "NO", "wmoId": 1337, "geometry": {"@type": "Point", "coordinates": [6.4265, 60.6251], "nearest": false}, "masl": 54, "validFrom": "2004-01-22T00:00:00.000Z", "county": "VESTLAND", "countyId": 46, "municipality": "VOSS", "municipalityId": 4621, "stationHolders": ["MET.NO"], "externalIds": ["01337"], "wigosId": "0-20000-0-01337"}, {"@type": "SensorSystem", "id": "SN63705", "name": "OPPDAL - S\u00c6TER", "shortName": "Oppdal", "country": "Norge", "countryCode": "NO", "wmoId": 1245, "geometry": {"@type": "Point", "coordinates": [9.6667, 62.6043], "nearest": false}, "masl": 604, "validFrom": "1999-12-01T00:00:00.000Z", "county": "TR\u00d8NDELAG", "countyId": 50, "municipality": "OPPDAL", "municipalityId": 5021, "stationHolders": ["MET.NO"], "externalIds": ["01245", "10.249.0.148"], "wigosId": "0-20000-0-01245"}, {"@type": "SensorSystem", "id": "SN52170", "name": "EKSINGEDAL", "shortName": "Eksingedal", "country": "Norge", "countryCode": "NO", "geometry": {"@type": "Point", "coordinates": [6.1469, 60.8028], "nearest": false}, "masl": 450, "validFrom": "1895-07-01T00:00:00.000Z", "county": "VESTLAND", "countyId": 46, "municipality": "VAKSDAL", "municipalityId": 4628, "stationHolders": ["MET.NO"], "wigosId": "0-578-0-52170"}, {"@type": "SensorSystem", "id": "SN79220", "name": "SKAMDAL", "shortName": "Skamdal", "country": "Norge", "countryCode": "NO", "wmoId": 1146, "geometry": {"@type": "Point", "coordinates": [13.904, 66.2348], "nearest": false}, "masl": 5, "validFrom": "2011-08-30T00:00:00.000Z", "county": "NORDLAND", "countyId": 18, "municipality": "RANA", "municipalityId": 1833, "stationHolders": ["BANE NOR"], "externalIds": ["01146", "10.249.0.81"], "wigosId": "0-20000-0-01146"}, {"@type": "SensorSystem", "id": "SN64760", "name": "SURNADAL - SYLTE", "shortName": "Sylte", "country": "Norge", "countryCode": "NO", "geometry": {"@type": "Point", "coordinates": [8.6895, 62.9853], "nearest": false}, "masl": 5, "validFrom": "2005-01-01T00:00:00.000Z", "county": "M\u00d8RE OG ROMSDAL", "countyId": 15, "municipality": "SURNADAL", "municipalityId": 1566, "stationHolders": ["NIBIO"], "externalIds": ["34"], "wigosId": "0-578-0-64760"}, {"@type": "SensorSystem", "id": "SN65370", "name": "SM\u00d8LA - MOLDSTAD", "shortName": "Sm\u00f8la", "country": "Norge", "countryCode": "NO", "geometry": {"@type": "Point", "coordinates": [8.063, 63.4197], "nearest": false}, "masl": 30, "validFrom": "1963-10-01T00:00:00.000Z", "county": "M\u00d8RE OG ROMSDAL", "countyId": 15, "municipality": "SM\u00d8LA", "municipalityId": 1573, "stationHolders": ["MET.NO"], "wigosId": "0-578-0-65370"}, {"@type": "SensorSystem", "id": "SN52310", "name": "MODALEN III", "shortName": "Modalen", "country": "Norge", "countryCode": "NO", "wmoId": 1326, "geometry": {"@type": "Point", "coordinates": [5.9733, 60.8562], "nearest": false}, "masl": 125, "validFrom": "2008-10-02T00:00:00.000Z", "county": "VESTLAND", "countyId": 46, "municipality": "MODALEN", "municipalityId": 4629, "stationHolders": ["MET.NO"], "externalIds": ["01326", "10.249.0.94"], "wigosId": "0-20000-0-01326"}, {"@type": "SensorSystem", "id": "SN63420", "name": "SUNNDALS\u00d8RA III", "shortName": "Sunndals\u00f8ra", "country": "Norge", "countryCode": "NO", "wmoId": 1226, "geometry": {"@type": "Point", "coordinates": [8.5473, 62.6785], "nearest": false}, "masl": 6, "validFrom": "1954-06-01T00:00:00.000Z", "county": "M\u00d8RE OG ROMSDAL", "countyId": 15, "municipality": "SUNNDAL", "municipalityId": 1563, "stationHolders": ["MET.NO", "HYDRO ALUMINIUM SUNNDAL"], "externalIds": ["1226"]}, {"@type": "SensorSystem", "id": "SN43350", "name": "EIGER\u00d8YA", "shortName": "Eiger\u00f8ya", "country": "Norge", "countryCode": "NO", "wmoId": 1426, "geometry": {"@type": "Point", "coordinates": [5.8718, 58.4353], "nearest": false}, "masl": 49, "validFrom": "2010-04-15T00:00:00.000Z", "county": "ROGALAND", "countyId": 11, "municipality": "EIGERSUND", "municipalityId": 1101, "stationHolders": ["MET.NO"], "externalIds": ["01426", "10.249.0.138"], "wigosId": "0-20000-0-01426"}, {"@type": "SensorSystem", "id": "SN90760", "name": "FAKKEN", "shortName": "Fakken", "country": "Norge", "countryCode": "NO", "geometry": {"@type": "Point", "coordinates": [20.11451, 70.10426], "nearest": false}, "masl": 57, "validFrom": "2003-01-21T00:00:00.000Z", "county": "TROMS OG FINNMARK", "countyId": 54, "municipality": "KARLS\u00d8Y", "municipalityId": 5423, "stationHolders": ["MET.NO"], "externalIds": ["10.249.0.120"], "wigosId": "0-578-0-90760"}, {"@type": "SensorSystem", "id": "SN93140", "name": "ALTA LUFTHAVN", "shortName": "Alta LH", "country": "Norge", "countryCode": "NO", "wmoId": 1049, "geometry": {"@type": "Point", "coordinates": [23.3582, 69.9775], "nearest": false}, "masl": 3, "validFrom": "1963-12-01T00:00:00.000Z", "county": "TROMS OG FINNMARK", "countyId": 54, "municipality": "ALTA", "municipalityId": 5403, "stationHolders": ["AVINOR", "MET.NO"], "externalIds": ["01049", "10.249.0.50", "ENAT"], "icaoCodes": ["ENAT"], "wigosId": "0-20000-0-01049"}, {"@type": "SensorSystem", "id": "SN86600", "name": "STOKMARKNES LH - SKAGEN", "shortName": "Stokmarknes LH", "country": "Norge", "countryCode": "NO", "wmoId": 1162, "geometry": {"@type": "Point", "coordinates": [15.0293, 68.58], "nearest": false}, "masl": 3, "validFrom": "1972-06-01T00:00:00.000Z", "county": "NORDLAND", "countyId": 18, "municipality": "HADSEL", "municipalityId": 1866, "stationHolders": ["AVINOR"], "externalIds": ["01162", "10.249.0.19", "ENSK"], "icaoCodes": ["ENSK"], "wigosId": "0-20000-0-01162"}, {"@type": "SensorSystem", "id": "SN71850", "name": "HALTEN FYR", "shortName": "Halten fyr", "country": "Norge", "countryCode": "NO", "wmoId": 1240, "geometry": {"@type": "Point", "coordinates": [9.4052, 64.1727], "nearest": false}, "masl": 16, "validFrom": "1983-09-01T00:00:00.000Z", "county": "TR\u00d8NDELAG", "countyId": 50, "municipality": "FR\u00d8YA", "municipalityId": 5014, "stationHolders": ["MET.NO"], "externalIds": ["01240", "10.249.1.51"], "wigosId": "0-20000-0-01240"}, {"@type": "SensorSystem", "id": "SN55820", "name": "FJ\u00c6RLAND - BREMUSEET", "shortName": "Fj\u00e6rland", "country": "Norge", "countryCode": "NO", "wmoId": 1332, "geometry": {"@type": "Point", "coordinates": [6.7642, 61.4233], "nearest": false}, "masl": 3, "validFrom": "2005-11-20T00:00:00.000Z", "county": "VESTLAND", "countyId": 46, "municipality": "SOGNDAL", "municipalityId": 4640, "stationHolders": ["MET.NO"], "externalIds": ["01332", "10.249.1.70"], "wigosId": "0-20000-0-01332"}, {"@type": "SensorSystem", "id": "SN25630", "name": "GEILO - OLDEBR\u00c5TEN", "shortName": "Geilo", "country": "Norge", "countryCode": "NO", "wmoId": 1359, "geometry": {"@type": "Point", "coordinates": [8.1948, 60.53], "nearest": false}, "masl": 772, "validFrom": "2006-07-01T00:00:00.000Z", "county": "VIKEN", "countyId": 30, "municipality": "HOL", "municipalityId": 3044, "stationHolders": ["MET.NO"], "externalIds": ["01359"], "wigosId": "0-20000-0-01359"}, {"@type": "SensorSystem", "id": "SN90490", "name": "TROMS\u00d8 - LANGNES", "shortName": "Troms\u00f8 LH", "country": "Norge", "countryCode": "NO", "wmoId": 1025, "geometry": {"@type": "Point", "coordinates": [18.9133, 69.6767], "nearest": false}, "masl": 8, "validFrom": "1964-09-30T00:00:00.000Z", "county": "TROMS OG FINNMARK", "countyId": 54, "municipality": "TROMS\u00d8", "municipalityId": 5401, "stationHolders": ["AVINOR"], "externalIds": ["01025", "10.249.0.39", "ENTC"], "icaoCodes": ["ENTC"], "wigosId": "0-20000-0-01025"}, {"@type": "SensorSystem", "id": "SN60650", "name": "LINGE", "shortName": "Linge", "country": "Norge", "countryCode": "NO", "geometry": {"@type": "Point", "coordinates": [7.2173, 62.288], "nearest": false}, "masl": 34, "validFrom": "1961-01-01T00:00:00.000Z", "county": "M\u00d8RE OG ROMSDAL", "countyId": 15, "municipality": "NORDDAL", "municipalityId": 1524, "stationHolders": ["NIBIO"], "externalIds": ["76"], "wigosId": "0-578-0-60650"}, {"@type": "SensorSystem", "id": "SN91130", "name": "LYNGEN - GJERDVASSBU", "shortName": "Lyngen", "country": "Norge", "countryCode": "NO", "wmoId": 1035, "geometry": {"@type": "Point", "coordinates": [20.094, 69.5588], "nearest": false}, "masl": 710, "validFrom": "2011-11-17T00:00:00.000Z", "county": "TROMS OG FINNMARK", "countyId": 54, "municipality": "LYNGEN", "municipalityId": 5424, "stationHolders": ["MET.NO"], "externalIds": ["01035", "10.249.0.8"], "wigosId": "0-20000-0-01035"}, {"@type": "SensorSystem", "id": "SN87640", "name": "HARSTAD STADION", "shortName": "Harstad", "country": "Norge", "countryCode": "NO", "wmoId": 1180, "geometry": {"@type": "Point", "coordinates": [16.5362, 68.8029], "nearest": false}, "masl": 45, "validFrom": "2002-08-01T00:00:00.000Z", "county": "TROMS OG FINNMARK", "countyId": 54, "municipality": "HARSTAD", "municipalityId": 5402, "stationHolders": ["MET.NO"], "externalIds": ["01180"], "wigosId": "0-20000-0-01180"}, {"@type": "SensorSystem", "id": "SN37230", "name": "TVEITSUND", "shortName": "Tveitsund", "country": "Norge", "countryCode": "NO", "wmoId": 1455, "geometry": {"@type": "Point", "coordinates": [8.5187, 59.0257], "nearest": false}, "masl": 252, "validFrom": "1944-06-01T00:00:00.000Z", "county": "VESTFOLD OG TELEMARK", "countyId": 38, "municipality": "NISSEDAL", "municipalityId": 3822, "stationHolders": ["MET.NO"], "externalIds": ["01455", "10.249.0.109"], "wigosId": "0-20000-0-01455"}, {"@type": "SensorSystem", "id": "SN65940", "name": "SULA", "shortName": "Sula", "country": "Norge", "countryCode": "NO", "wmoId": 1228, "geometry": {"@type": "Point", "coordinates": [8.4667, 63.8467], "nearest": false}, "masl": 5, "validFrom": "1975-01-01T00:00:00.000Z", "county": "TR\u00d8NDELAG", "countyId": 50, "municipality": "FR\u00d8YA", "municipalityId": 5014, "stationHolders": ["MET.NO"], "externalIds": ["01228"], "wigosId": "0-20000-0-01228"}, {"@type": "SensorSystem", "id": "SN41770", "name": "LINDESNES FYR", "shortName": "Lindesnes fyr", "country": "Norge", "countryCode": "NO", "wmoId": 1436, "geometry": {"@type": "Point", "coordinates": [7.048, 57.9815], "nearest": false}, "masl": 16, "validFrom": "1863-01-01T00:00:00.000Z", "county": "AGDER", "countyId": 42, "municipality": "LINDESNES", "municipalityId": 4205, "stationHolders": ["MET.NO"], "externalIds": ["01436", "10.249.1.145"], "wigosId": "0-20000-0-01436"}, {"@type": "SensorSystem", "id": "SN71000", "name": "STEINKJER - S\u00d8NDRE EGGE", "shortName": "Steinkjer", "country": "Norge", "countryCode": "NO", "wmoId": 1277, "geometry": {"@type": "Point", "coordinates": [11.4493, 64.0217], "nearest": false}, "masl": 6, "validFrom": "1984-05-05T00:00:00.000Z", "county": "TR\u00d8NDELAG", "countyId": 50, "municipality": "STEINKJER", "municipalityId": 5006, "stationHolders": ["NVE", "STEINKJER KOMMUNE", "MET.NO"], "externalIds": ["01277", "10.249.0.113"], "wigosId": "0-20000-0-01277"}, {"@type": "SensorSystem", "id": "SN26990", "name": "SANDE - GALLEBERG", "shortName": "Sande", "country": "Norge", "countryCode": "NO", "wmoId": 1485, "geometry": {"@type": "Point", "coordinates": [10.215, 59.6193], "nearest": false}, "masl": 60, "validFrom": "1995-01-01T00:00:00.000Z", "county": "VESTFOLD OG TELEMARK", "countyId": 38, "municipality": "HOLMESTRAND", "municipalityId": 3802, "stationHolders": ["NIBIO", "MET.NO"], "externalIds": ["01485", "1485", "3"], "wigosId": "0-20000-0-01485"}, {"@type": "SensorSystem", "id": "SN83710", "name": "DRAG - AJLUOKTA", "shortName": "Drag", "country": "Norge", "countryCode": "NO", "wmoId": 1143, "geometry": {"@type": "Point", "coordinates": [16.0838, 68.0472], "nearest": false}, "masl": 19, "validFrom": "2007-07-02T00:00:00.000Z", "county": "NORDLAND", "countyId": 18, "municipality": "NARVIK", "municipalityId": 1806, "stationHolders": ["MET.NO"], "externalIds": ["01143", "10.249.0.166"], "wigosId": "0-20000-0-01143"}, {"@type": "SensorSystem", "id": "SN15730", "name": "BR\u00c5T\u00c5 - SLETTOM", "shortName": "Br\u00e5t\u00e5", "country": "Norge", "countryCode": "NO", "wmoId": 1360, "geometry": {"@type": "Point", "coordinates": [7.8955, 61.8957], "nearest": false}, "masl": 664, "validFrom": "1998-11-01T00:00:00.000Z", "county": "INNLANDET", "countyId": 34, "municipality": "SKJ\u00c5K", "municipalityId": 3433, "stationHolders": ["MET.NO"], "externalIds": ["01360"], "wigosId": "0-20000-0-01360"}, {"@type": "SensorSystem", "id": "SN44640", "name": "STAVANGER - V\u00c5LAND", "shortName": "V\u00e5land", "country": "Norge", "countryCode": "NO", "wmoId": 1416, "geometry": {"@type": "Point", "coordinates": [5.7278, 58.9563], "nearest": false}, "masl": 72, "validFrom": "1882-01-01T00:00:00.000Z", "county": "ROGALAND", "countyId": 11, "municipality": "STAVANGER", "municipalityId": 1103, "stationHolders": ["STAVANGER KOMMUNE"], "externalIds": ["01416", "10.249.0.92"], "wigosId": "0-20000-0-01416"}, {"@type": "SensorSystem", "id": "SN29720", "name": "DAGALI LUFTHAVN", "shortName": "Dagali LH", "country": "Norge", "countryCode": "NO", "wmoId": 1363, "geometry": {"@type": "Point", "coordinates": [8.5263, 60.4188], "nearest": false}, "masl": 798, "validFrom": "2001-11-01T00:00:00.000Z", "county": "VIKEN", "countyId": 30, "municipality": "HOL", "municipalityId": 3044, "stationHolders": ["MET.NO", "DAGALI FLYPLASS (GEILO LUFTHAVN)"], "externalIds": ["01363", "10.249.0.43", "1363", "ENDI"], "icaoCodes": ["ENDI"], "wigosId": "0-20000-0-01363"}, {"@type": "SensorSystem", "id": "SN76930", "name": "NORNE", "shortName": "Norne", "country": "Norge", "countryCode": "NO", "wmoId": 1200, "geometry": {"@type": "Point", "coordinates": [8.085, 66.0256], "nearest": false}, "masl": 33, "validFrom": "1998-02-11T00:00:00.000Z", "county": "NORSKEHAVET", "countyId": 24, "municipality": "NORSKEHAVET", "municipalityId": 2400, "stationHolders": ["STATOIL ASA"], "externalIds": ["1200", "ENNE", "LF5T"], "icaoCodes": ["ENNE"], "shipCodes": ["LF5T"], "wigosId": "0-578-0-76930"}, {"@type": "SensorSystem", "id": "SN70850", "name": "SN\u00c5SA - KJEVLIA", "shortName": "Sn\u00e5sa\u00a0- Kjevlia", "country": "Norge", "countryCode": "NO", "wmoId": 1124, "geometry": {"@type": "Point", "coordinates": [12.4692, 64.1587], "nearest": false}, "masl": 195, "validFrom": "1895-07-01T00:00:00.000Z", "county": "TR\u00d8NDELAG", "countyId": 50, "municipality": "SN\u00c5SA", "municipalityId": 5041, "stationHolders": ["MET.NO"], "externalIds": ["01124", "10.249.0.222"], "wigosId": "0-20000-0-01124"}, {"@type": "SensorSystem", "id": "SN41090", "name": "MANDAL III", "shortName": "Mandal", "country": "Norge", "countryCode": "NO", "wmoId": 1430, "geometry": {"@type": "Point", "coordinates": [7.4517, 58.0247], "nearest": false}, "masl": 10, "validFrom": "2009-08-26T00:00:00.000Z", "county": "AGDER", "countyId": 42, "municipality": "LINDESNES", "municipalityId": 4205, "stationHolders": ["MET.NO"], "externalIds": ["01430", "10.249.0.118"], "wigosId": "0-20000-0-01430"}, {"@type": "SensorSystem", "id": "SN23550", "name": "BEITOST\u00d8LEN II", "shortName": "Beitost\u00f8len", "country": "Norge", "countryCode": "NO", "wmoId": 1365, "geometry": {"@type": "Point", "coordinates": [8.9228, 61.2508], "nearest": false}, "masl": 965, "validFrom": "2010-08-28T00:00:00.000Z", "county": "INNLANDET", "countyId": 34, "municipality": "\u00d8YSTRE SLIDRE", "municipalityId": 3453, "stationHolders": ["MET.NO"], "externalIds": ["01365", "10.249.0.145"], "wigosId": "0-20000-0-01365"}, {"@type": "SensorSystem", "id": "SN40510", "name": "BL\u00c5SJ\u00d8", "shortName": "Bl\u00e5sj\u00f8", "country": "Norge", "countryCode": "NO", "wmoId": 1440, "geometry": {"@type": "Point", "coordinates": [6.8817, 59.3335], "nearest": false}, "masl": 1105, "validFrom": "2011-10-03T00:00:00.000Z", "county": "AGDER", "countyId": 42, "municipality": "BYKLE", "municipalityId": 4222, "stationHolders": ["MET.NO"], "externalIds": ["01440", "300125010101250"], "wigosId": "0-20000-0-01440"}, {"@type": "SensorSystem", "id": "SN27010", "name": "KONNERUD", "shortName": "Konnerud ", "country": "Norge", "countryCode": "NO", "wmoId": 1477, "geometry": {"@type": "Point", "coordinates": [10.146, 59.713], "nearest": false}, "masl": 193, "validFrom": "2010-03-19T00:00:00.000Z", "county": "VIKEN", "countyId": 30, "municipality": "DRAMMEN", "municipalityId": 3005, "stationHolders": ["DRAMMEN KOMMUNE"], "externalIds": ["01477"], "wigosId": "0-20000-0-01477"}, {"@type": "SensorSystem", "id": "SN85040", "name": "ROTV\u00c6R", "shortName": "Rotv\u00e6r", "country": "Norge", "countryCode": "NO", "wmoId": 1105, "geometry": {"@type": "Point", "coordinates": [15.943, 68.368], "nearest": false}, "masl": 8, "validFrom": "1938-06-03T00:00:00.000Z", "county": "NORDLAND", "countyId": 18, "municipality": "L\u00d8DINGEN", "municipalityId": 1851, "stationHolders": ["MET.NO"], "externalIds": ["01105"], "wigosId": "0-20000-0-01105"}, {"@type": "SensorSystem", "id": "SN76750", "name": "SANDNESSJ\u00d8EN LH - STOKKA", "shortName": "Sandnessj\u00f8en", "country": "Norge", "countryCode": "NO", "wmoId": 1116, "geometry": {"@type": "Point", "coordinates": [12.4783, 65.9635], "nearest": false}, "masl": 17, "validFrom": "1968-07-01T00:00:00.000Z", "county": "NORDLAND", "countyId": 18, "municipality": "ALSTAHAUG", "municipalityId": 1820, "stationHolders": ["AVINOR"], "externalIds": ["01116", "10.249.0.14", "ENST"], "icaoCodes": ["ENST"], "wigosId": "0-20000-0-01116"}, {"@type": "SensorSystem", "id": "SN80700", "name": "GLOMFJORD", "shortName": "Glomfjord", "country": "Norge", "countryCode": "NO", "geometry": {"@type": "Point", "coordinates": [13.9793, 66.8102], "nearest": false}, "masl": 39, "validFrom": "1916-01-01T00:00:00.000Z", "county": "NORDLAND", "countyId": 18, "municipality": "MEL\u00d8Y", "municipalityId": 1837, "stationHolders": ["MET.NO"], "externalIds": ["10.249.0.213"], "wigosId": "0-578-0-80700"}, {"@type": "SensorSystem", "id": "SN46610", "name": "SAUDA", "shortName": "Sauda", "country": "Norge", "countryCode": "NO", "wmoId": 1424, "geometry": {"@type": "Point", "coordinates": [6.3499, 59.6479], "nearest": false}, "masl": 5, "validFrom": "1928-03-01T00:00:00.000Z", "county": "ROGALAND", "countyId": 11, "municipality": "SAUDA", "municipalityId": 1135, "stationHolders": ["MET.NO"], "externalIds": ["01424", "10.249.1.86"], "wigosId": "0-20000-0-01424"}, {"@type": "SensorSystem", "id": "SN76926", "name": "SLEIPNER A", "shortName": "Sleipner A", "country": "Norge", "countryCode": "NO", "wmoId": 1402, "geometry": {"@type": "Point", "coordinates": [1.9091, 58.3711], "nearest": false}, "masl": 85, "validFrom": "1993-10-01T00:00:00.000Z", "county": "NORDSJ\u00d8EN", "countyId": 26, "municipality": "NORDSJ\u00d8EN", "municipalityId": 2600, "stationHolders": ["STATOIL ASA"], "externalIds": ["1402", "ENSL", "LF4C"], "icaoCodes": ["ENSL"], "shipCodes": ["LF4C"], "wigosId": "0-578-0-76926"}, {"@type": "SensorSystem", "id": "SN48120", "name": "STORD LUFTHAVN", "shortName": "Stord LH", "country": "Norge", "countryCode": "NO", "wmoId": 1407, "geometry": {"@type": "Point", "coordinates": [5.3407, 59.7933], "nearest": false}, "masl": 49, "validFrom": "1985-01-01T00:00:00.000Z", "county": "VESTLAND", "countyId": 46, "municipality": "STORD", "municipalityId": 4614, "stationHolders": ["AVINOR"], "externalIds": ["10.249.0.42", "1407", "ENSO"], "icaoCodes": ["ENSO"], "wigosId": "0-578-0-48120"}, {"@type": "SensorSystem", "id": "SN65310", "name": "VEIHOLMEN", "shortName": "Veiholmen", "country": "Norge", "countryCode": "NO", "wmoId": 1225, "geometry": {"@type": "Point", "coordinates": [7.9533, 63.5185], "nearest": false}, "masl": 5, "validFrom": "2002-07-01T00:00:00.000Z", "county": "M\u00d8RE OG ROMSDAL", "countyId": 15, "municipality": "SM\u00d8LA", "municipalityId": 1573, "stationHolders": ["MET.NO"], "externalIds": ["01225", "10.249.1.66"], "wigosId": "0-20000-0-01225"}, {"@type": "SensorSystem", "id": "SN40880", "name": "HOVDEN - LUNDANE", "shortName": "Hovden", "country": "Norge", "countryCode": "NO", "wmoId": 1441, "geometry": {"@type": "Point", "coordinates": [7.3897, 59.5766], "nearest": false}, "masl": 841, "validFrom": "1994-11-01T00:00:00.000Z", "county": "AGDER", "countyId": 42, "municipality": "BYKLE", "municipalityId": 4222, "stationHolders": ["MET.NO"], "externalIds": ["01441"], "wigosId": "0-20000-0-01441"}, {"@type": "SensorSystem", "id": "SN90560", "name": "KVAL\u00d8YSLETTA", "shortName": "Kval\u00f8ysletta ", "country": "Norge", "countryCode": "NO", "geometry": {"@type": "Point", "coordinates": [18.8772, 69.6988], "nearest": false}, "masl": 63, "validFrom": "2011-10-20T00:00:00.000Z", "county": "TROMS OG FINNMARK", "countyId": 54, "municipality": "TROMS\u00d8", "municipalityId": 5401, "stationHolders": ["TROMS\u00d8 KOMMUNE"], "externalIds": ["1512"], "wigosId": "0-578-0-90560"}, {"@type": "SensorSystem", "id": "SN16560", "name": "DOMB\u00c5S - NORDIGARD", "shortName": "Domb\u00e5s", "country": "Norge", "countryCode": "NO", "wmoId": 1233, "geometry": {"@type": "Point", "coordinates": [9.1147, 62.07165], "nearest": false}, "masl": 638, "validFrom": "2006-08-31T00:00:00.000Z", "county": "INNLANDET", "countyId": 34, "municipality": "DOVRE", "municipalityId": 3431, "stationHolders": ["MET.NO"], "externalIds": ["01233"], "wigosId": "0-20000-0-01233"}, {"@type": "SensorSystem", "id": "SN42940", "name": "SIRDAL - SINNES", "shortName": "Sinnes", "country": "Norge", "countryCode": "NO", "wmoId": 1431, "geometry": {"@type": "Point", "coordinates": [6.9097, 58.923], "nearest": false}, "masl": 560, "validFrom": "2007-07-02T00:00:00.000Z", "county": "AGDER", "countyId": 42, "municipality": "SIRDAL", "municipalityId": 4228, "stationHolders": ["MET.NO"], "externalIds": ["01431", "10.249.1.28"], "wigosId": "0-20000-0-01431"}, {"@type": "SensorSystem", "id": "SN1230", "name": "HALDEN", "shortName": "Halden", "country": "Norge", "countryCode": "NO", "geometry": {"@type": "Point", "coordinates": [11.388, 59.1223], "nearest": false}, "masl": 3, "validFrom": "1882-12-01T00:00:00.000Z", "county": "VIKEN", "countyId": 30, "municipality": "HALDEN", "municipalityId": 3001, "stationHolders": ["HALDEN KOMMUNE"], "wigosId": "0-578-0-1230"}, {"@type": "SensorSystem", "id": "SN88690", "name": "HEKKINGEN FYR", "shortName": "Hekkingen fyr", "country": "Norge", "countryCode": "NO", "wmoId": 1015, "geometry": {"@type": "Point", "coordinates": [17.8303, 69.6013], "nearest": false}, "masl": 14, "validFrom": "1979-11-01T00:00:00.000Z", "county": "TROMS OG FINNMARK", "countyId": 54, "municipality": "SENJA", "municipalityId": 5421, "stationHolders": ["MET.NO"], "externalIds": ["01015", "10.249.0.114", "10.249.0.146"], "wigosId": "0-20000-0-01015"}, {"@type": "SensorSystem", "id": "SN20540", "name": "GRAN", "shortName": "Gran", "country": "Norge", "countryCode": "NO", "geometry": {"@type": "Point", "coordinates": [10.5592, 60.3558], "nearest": false}, "masl": 245, "validFrom": "2005-01-01T00:00:00.000Z", "county": "INNLANDET", "countyId": 34, "municipality": "GRAN", "municipalityId": 3446, "stationHolders": ["NIBIO"], "externalIds": ["18"], "wigosId": "0-578-0-20540"}, {"@type": "SensorSystem", "id": "SN61060", "name": "REKDAL", "shortName": "Rekdal", "country": "Norge", "countryCode": "NO", "wmoId": 1214, "geometry": {"@type": "Point", "coordinates": [6.7552, 62.6512], "nearest": false}, "masl": 43, "validFrom": "2008-05-26T00:00:00.000Z", "county": "M\u00d8RE OG ROMSDAL", "countyId": 15, "municipality": "VESTNES", "municipalityId": 1535, "stationHolders": ["MET.NO"], "externalIds": ["01214", "10.249.0.163"], "wigosId": "0-20000-0-01214"}, {"@type": "SensorSystem", "id": "SN76931", "name": "TROLL A", "shortName": "Troll A", "country": "Norge", "countryCode": "NO", "wmoId": 1309, "geometry": {"@type": "Point", "coordinates": [3.7193, 60.6435], "nearest": false}, "masl": 128, "validFrom": "1998-01-04T00:00:00.000Z", "county": "NORDSJ\u00d8EN", "countyId": 26, "municipality": "NORDSJ\u00d8EN", "municipalityId": 2600, "stationHolders": ["STATOIL ASA"], "externalIds": ["ENQA", "LF4B"], "icaoCodes": ["ENQA"], "shipCodes": ["LF4B"], "wigosId": "0-20000-0-01309"}, {"@type": "SensorSystem", "id": "SN96400", "name": "SLETTNES FYR", "shortName": "Slettnes fyr", "country": "Norge", "countryCode": "NO", "wmoId": 1078, "geometry": {"@type": "Point", "coordinates": [28.217, 71.0888], "nearest": false}, "masl": 8, "validFrom": "1927-11-28T00:00:00.000Z", "county": "TROMS OG FINNMARK", "countyId": 54, "municipality": "GAMVIK", "municipalityId": 5439, "stationHolders": ["MET.NO"], "externalIds": ["01078", "10.249.0.88"], "wigosId": "0-20000-0-01078"}, {"@type": "SensorSystem", "id": "SN89940", "name": "DIVIDALEN II", "shortName": "Dividalen", "country": "Norge", "countryCode": "NO", "wmoId": 1198, "geometry": {"@type": "Point", "coordinates": [19.7017, 68.7817], "nearest": false}, "masl": 204, "validFrom": "2009-10-08T00:00:00.000Z", "county": "TROMS OG FINNMARK", "countyId": 54, "municipality": "M\u00c5LSELV", "municipalityId": 5418, "stationHolders": ["MET.NO"], "externalIds": ["01198", "300134010813500"], "wigosId": "0-20000-0-01198"}, {"@type": "SensorSystem", "id": "SN99740", "name": "KONGS\u00d8YA", "shortName": "Kongs\u00f8ya", "country": "Svalbard og Jan Mayen", "countryCode": "SJ", "wmoId": 1016, "geometry": {"@type": "Point", "coordinates": [28.892, 78.9108], "nearest": false}, "masl": 20, "validFrom": "2010-09-28T00:00:00.000Z", "county": "SVALBARD", "countyId": 21, "municipality": "SVALBARD", "municipalityId": 2100, "stationHolders": ["MET.NO", "UNIVERSITETET I OSLO"], "externalIds": ["01016", "300134010234480", "300134010806050"], "wigosId": "0-20000-0-01016"}, {"@type": "SensorSystem", "id": "SN76530", "name": "TJ\u00d8TTA", "shortName": "Tj\u00f8tta", "country": "Norge", "countryCode": "NO", "wmoId": 1117, "geometry": {"@type": "Point", "coordinates": [12.4255, 65.8295], "nearest": false}, "masl": 21, "validFrom": "1984-09-01T00:00:00.000Z", "county": "NORDLAND", "countyId": 18, "municipality": "ALSTAHAUG", "municipalityId": 1820, "stationHolders": ["NIBIO TJ\u00d8TTA", "NIBIO"], "externalIds": ["01117", "28"], "wigosId": "0-20000-0-01117"}, {"@type": "SensorSystem", "id": "SN700", "name": "DREVSJ\u00d8", "shortName": "Drevsj\u00f8", "country": "Norge", "countryCode": "NO", "wmoId": 1393, "geometry": {"@type": "Point", "coordinates": [12.048, 61.8872], "nearest": false}, "masl": 672, "validFrom": "1947-10-20T00:00:00.000Z", "county": "INNLANDET", "countyId": 34, "municipality": "ENGERDAL", "municipalityId": 3425, "stationHolders": ["MET.NO"], "externalIds": ["01393"], "wigosId": "0-20000-0-01393"}, {"@type": "SensorSystem", "id": "SN82290", "name": "BOD\u00d8 VI", "shortName": "Bod\u00f8", "country": "Norge", "countryCode": "NO", "wmoId": 1152, "geometry": {"@type": "Point", "coordinates": [14.3637, 67.267], "nearest": false}, "masl": 11, "validFrom": "1953-01-01T00:00:00.000Z", "county": "NORDLAND", "countyId": 18, "municipality": "BOD\u00d8", "municipalityId": 1804, "stationHolders": ["AVINOR", "MET.NO"], "externalIds": ["01152", "ENBO"], "icaoCodes": ["ENBO"], "wigosId": "0-20000-0-01152"}, {"@type": "SensorSystem", "id": "SN46450", "name": "R\u00d8LDAL", "shortName": "R\u00f8ldal", "country": "Norge", "countryCode": "NO", "geometry": {"@type": "Point", "coordinates": [6.8238, 59.8304], "nearest": false}, "masl": 393, "validFrom": "1883-01-01T00:00:00.000Z", "county": "VESTLAND", "countyId": 46, "municipality": "ULLENSVANG", "municipalityId": 4618, "stationHolders": ["MET.NO"], "wigosId": "0-578-0-46450"}, {"@type": "SensorSystem", "id": "SN41480", "name": "\u00c5SERAL", "shortName": "\u00c5seral", "country": "Norge", "countryCode": "NO", "geometry": {"@type": "Point", "coordinates": [7.4128, 58.6172], "nearest": false}, "masl": 268, "validFrom": "1895-07-01T00:00:00.000Z", "county": "AGDER", "countyId": 42, "municipality": "\u00c5SERAL", "municipalityId": 4224, "stationHolders": ["MET.NO"], "externalIds": ["10.249.1.79"], "wigosId": "0-578-0-41480"}, {"@type": "SensorSystem", "id": "SN29350", "name": "UVDAL KRAFTVERK", "shortName": "Uvdal kraftverk", "country": "Norge", "countryCode": "NO", "geometry": {"@type": "Point", "coordinates": [8.7057, 60.255], "nearest": false}, "masl": 648, "validFrom": "1985-10-01T00:00:00.000Z", "county": "VIKEN", "countyId": 30, "municipality": "NORE OG UVDAL", "municipalityId": 3052, "stationHolders": ["ASKER/B\u00c6RUM KRAFTSELSKAP"], "wigosId": "0-578-0-29350"}, {"@type": "SensorSystem", "id": "SN93301", "name": "SUOLOVUOPMI - LULIT", "shortName": "Suolovuopmi", "country": "Norge", "countryCode": "NO", "wmoId": 1058, "geometry": {"@type": "Point", "coordinates": [23.5345, 69.5797], "nearest": false}, "masl": 381, "validFrom": "2004-11-08T00:00:00.000Z", "county": "TROMS OG FINNMARK", "countyId": 54, "municipality": "KAUTOKEINO", "municipalityId": 5430, "stationHolders": ["MET.NO"], "externalIds": ["01058", "10.249.1.96"], "wigosId": "0-20000-0-01058"}, {"@type": "SensorSystem", "id": "SN90720", "name": "M\u00c5SVIK", "shortName": "M\u00e5svik", "country": "Norge", "countryCode": "NO", "geometry": {"@type": "Point", "coordinates": [18.6938, 69.9903], "nearest": false}, "masl": 26, "validFrom": "2003-10-08T00:00:00.000Z", "county": "TROMS OG FINNMARK", "countyId": 54, "municipality": "TROMS\u00d8", "municipalityId": 5401, "stationHolders": ["MET.NO"], "externalIds": ["10.249.0.121"], "wigosId": "0-578-0-90720"}, {"@type": "SensorSystem", "id": "SN49910", "name": "ULVIK - HJELTNES", "shortName": "Hjeltnes", "country": "Norge", "countryCode": "NO", "geometry": {"@type": "Point", "coordinates": [6.9325, 60.5637], "nearest": false}, "masl": 42, "validFrom": "1966-06-01T00:00:00.000Z", "county": "VESTLAND", "countyId": 46, "municipality": "ULVIK", "municipalityId": 4620, "stationHolders": ["NIBIO"], "externalIds": ["79"], "wigosId": "0-578-0-49910"}, {"@type": "SensorSystem", "id": "SN89350", "name": "BARDUFOSS", "shortName": "Bardufoss", "country": "Norge", "countryCode": "NO", "wmoId": 1023, "geometry": {"@type": "Point", "coordinates": [18.5437, 69.0577], "nearest": false}, "masl": 76, "validFrom": "1940-07-01T00:00:00.000Z", "county": "TROMS OG FINNMARK", "countyId": 54, "municipality": "M\u00c5LSELV", "municipalityId": 5418, "stationHolders": ["MET.NO", "AVINOR"], "externalIds": ["01023", "10.249.0.36", "10.249.1.46", "ENDU"], "icaoCodes": ["ENDU"], "wigosId": "0-20000-0-01023"}, {"@type": "SensorSystem", "id": "SN23500", "name": "L\u00d8KEN I VOLBU", "shortName": "L\u00f8ken i Volbu", "country": "Norge", "countryCode": "NO", "wmoId": 1371, "geometry": {"@type": "Point", "coordinates": [9.063, 61.122], "nearest": false}, "masl": 521, "validFrom": "1924-01-01T00:00:00.000Z", "county": "INNLANDET", "countyId": 34, "municipality": "\u00d8YSTRE SLIDRE", "municipalityId": 3453, "stationHolders": ["NIBIO"], "externalIds": ["01371", "1371", "23"], "wigosId": "0-20000-0-01371"}, {"@type": "SensorSystem", "id": "SN99880", "name": "PYRAMIDEN", "shortName": "Pyramiden ", "country": "Svalbard og Jan Mayen", "countryCode": "SJ", "wmoId": 1024, "geometry": {"@type": "Point", "coordinates": [16.3603, 78.6557], "nearest": false}, "masl": 20, "validFrom": "2012-08-04T00:00:00.000Z", "county": "SVALBARD", "countyId": 21, "municipality": "SVALBARD", "municipalityId": 2100, "stationHolders": ["MET.NO"], "externalIds": ["01024", "300125060809780", "300134010701680"], "wigosId": "0-20000-0-01024"}, {"@type": "SensorSystem", "id": "SN42720", "name": "BAKKE", "shortName": "Bakke", "country": "Norge", "countryCode": "NO", "geometry": {"@type": "Point", "coordinates": [6.657, 58.4117], "nearest": false}, "masl": 75, "validFrom": "1895-07-01T00:00:00.000Z", "county": "AGDER", "countyId": 42, "municipality": "FLEKKEFJORD", "municipalityId": 4207, "stationHolders": ["MET.NO"], "wigosId": "0-578-0-42720"}, {"@type": "SensorSystem", "id": "SN92750", "name": "HASVIK LUFTHAVN", "shortName": "Hasvik LH", "country": "Norge", "countryCode": "NO", "wmoId": 1044, "geometry": {"@type": "Point", "coordinates": [22.1457, 70.4865], "nearest": false}, "masl": 6, "validFrom": "1984-01-01T00:00:00.000Z", "county": "TROMS OG FINNMARK", "countyId": 54, "municipality": "HASVIK", "municipalityId": 5433, "stationHolders": ["AVINOR"], "externalIds": ["01044", "10.249.0.23", "ENHK"], "icaoCodes": ["ENHK"], "wigosId": "0-20000-0-01044"}, {"@type": "SensorSystem", "id": "SN44610", "name": "KVITS\u00d8Y - NORDB\u00d8", "shortName": "Kvits\u00f8y", "country": "Norge", "countryCode": "NO", "wmoId": 1411, "geometry": {"@type": "Point", "coordinates": [5.4122, 59.0705], "nearest": false}, "masl": 21, "validFrom": "2005-04-26T00:00:00.000Z", "county": "ROGALAND", "countyId": 11, "municipality": "KVITS\u00d8Y", "municipalityId": 1144, "stationHolders": ["MET.NO"], "externalIds": ["01411", "10.249.0.204"], "wigosId": "0-20000-0-01411"}, {"@type": "SensorSystem", "id": "SN3190", "name": "SARPSBORG", "shortName": "Sarpsborg", "country": "Norge", "countryCode": "NO", "wmoId": 1493, "geometry": {"@type": "Point", "coordinates": [11.1128, 59.2852], "nearest": false}, "masl": 57, "validFrom": "1896-07-01T00:00:00.000Z", "county": "VIKEN", "countyId": 30, "municipality": "SARPSBORG", "municipalityId": 3003, "stationHolders": ["SARPSBORG BRANNSTASJON", "MET.NO"], "externalIds": ["01493", "10.249.0.217"], "wigosId": "0-20000-0-01493"}, {"@type": "SensorSystem", "id": "SN17150", "name": "RYGGE", "shortName": "Rygge", "country": "Norge", "countryCode": "NO", "wmoId": 1494, "geometry": {"@type": "Point", "coordinates": [10.798, 59.3742], "nearest": false}, "masl": 40, "validFrom": "1955-03-01T00:00:00.000Z", "county": "VIKEN", "countyId": 30, "municipality": "MOSS", "municipalityId": 3002, "stationHolders": ["MET.NO", "AVINOR"], "externalIds": ["01494", "10.249.0.11", "10.249.0.155", "ENRY"], "icaoCodes": ["ENRY"], "wigosId": "0-20000-0-01494"}, {"@type": "SensorSystem", "id": "SN48330", "name": "SL\u00c5TTER\u00d8Y FYR", "shortName": "Sl\u00e5tter\u00f8y fyr", "country": "Norge", "countryCode": "NO", "wmoId": 1406, "geometry": {"@type": "Point", "coordinates": [5.0683, 59.9083], "nearest": false}, "masl": 25, "validFrom": "1923-07-01T00:00:00.000Z", "county": "VESTLAND", "countyId": 46, "municipality": "B\u00d8MLO", "municipalityId": 4613, "stationHolders": ["MET.NO"], "externalIds": ["01406", "10.249.1.64"], "wigosId": "0-20000-0-01406"}, {"@type": "SensorSystem", "id": "SN38730", "name": "HYNNEKLEIV", "shortName": "Hynnekleiv", "country": "Norge", "countryCode": "NO", "wmoId": 1453, "geometry": {"@type": "Point", "coordinates": [8.4167, 58.6007], "nearest": false}, "masl": 162, "validFrom": "2012-01-04T00:00:00.000Z", "county": "AGDER", "countyId": 42, "municipality": "FROLAND", "municipalityId": 4214, "stationHolders": ["BANE NOR"], "externalIds": ["01453", "10.249.0.99"], "wigosId": "0-20000-0-01453"}, {"@type": "SensorSystem", "id": "SN58100", "name": "SANDANE LUFTHAMN", "shortName": "Sandane LH", "country": "Norge", "countryCode": "NO", "wmoId": 1320, "geometry": {"@type": "Point", "coordinates": [6.1043, 61.8293], "nearest": false}, "masl": 60, "validFrom": "1975-06-01T00:00:00.000Z", "county": "VESTLAND", "countyId": 46, "municipality": "GLOPPEN", "municipalityId": 4650, "stationHolders": ["AVINOR"], "externalIds": ["01320", "10.249.0.57", "10.249.0.6", "ENSD"], "icaoCodes": ["ENSD"], "wigosId": "0-20000-0-01320"}, {"@type": "SensorSystem", "id": "SN94230", "name": "ROGNSUNDET", "shortName": "Rognsundet", "country": "Norge", "countryCode": "NO", "wmoId": 1043, "geometry": {"@type": "Point", "coordinates": [22.8177, 70.4107], "nearest": false}, "masl": 18, "validFrom": "2010-07-16T00:00:00.000Z", "county": "TROMS OG FINNMARK", "countyId": 54, "municipality": "ALTA", "municipalityId": 5403, "stationHolders": ["MET.NO"], "externalIds": ["01043"], "wigosId": "0-20000-0-01043"}, {"@type": "SensorSystem", "id": "SN50540", "name": "BERGEN - FLORIDA", "shortName": "Bergen", "country": "Norge", "countryCode": "NO", "wmoId": 1317, "geometry": {"@type": "Point", "coordinates": [5.3327, 60.383], "nearest": false}, "masl": 12, "validFrom": "1949-11-28T00:00:00.000Z", "county": "VESTLAND", "countyId": 46, "municipality": "BERGEN", "municipalityId": 4601, "stationHolders": ["MET.NO"], "externalIds": ["01317", "10.249.0.159"], "wigosId": "0-20000-0-01317"}, {"@type": "SensorSystem", "id": "SN21680", "name": "VEST-TORPA II", "shortName": "Vest-Torpa", "country": "Norge", "countryCode": "NO", "wmoId": 1374, "geometry": {"@type": "Point", "coordinates": [10.0358, 60.9345], "nearest": false}, "masl": 542, "validFrom": "1986-08-01T00:00:00.000Z", "county": "INNLANDET", "countyId": 34, "municipality": "NORDRE LAND", "municipalityId": 3448, "stationHolders": ["MET.NO"], "externalIds": ["01374", "10.249.1.22"], "wigosId": "0-20000-0-01374"}, {"@type": "SensorSystem", "id": "SN10800", "name": "S\u00d8LENDET", "shortName": "S\u00f8lendet", "country": "Norge", "countryCode": "NO", "wmoId": 1287, "geometry": {"@type": "Point", "coordinates": [11.8153, 62.6793], "nearest": false}, "masl": 747, "validFrom": "2007-10-01T00:00:00.000Z", "county": "TR\u00d8NDELAG", "countyId": 50, "municipality": "R\u00d8ROS", "municipalityId": 5025, "stationHolders": ["VITENSKAPSMUSEET NTNU"], "externalIds": ["01287", "10.249.0.225"], "wigosId": "0-20000-0-01287"}, {"@type": "SensorSystem", "id": "SN61410", "name": "MANNEN", "shortName": "Mannen ", "country": "Norge", "countryCode": "NO", "wmoId": 1220, "geometry": {"@type": "Point", "coordinates": [7.7703, 62.4555], "nearest": false}, "masl": 1294, "validFrom": "2010-03-12T00:00:00.000Z", "county": "M\u00d8RE OG ROMSDAL", "countyId": 15, "municipality": "RAUMA", "municipalityId": 1539, "stationHolders": ["NVE SEKSJON FOR FJELLSKRED"], "externalIds": ["01220"], "wigosId": "0-20000-0-01220"}, {"@type": "SensorSystem", "id": "SN99720", "name": "HOPEN", "shortName": "Hopen", "country": "Svalbard og Jan Mayen", "countryCode": "SJ", "wmoId": 1062, "geometry": {"@type": "Point", "coordinates": [25.0133, 76.5097], "nearest": false}, "masl": 6, "validFrom": "1944-11-01T00:00:00.000Z", "county": "SVALBARD", "countyId": 21, "municipality": "SVALBARD", "municipalityId": 2100, "stationHolders": ["MET.NO"], "externalIds": ["01062", "LML"], "shipCodes": ["LML"], "wigosId": "0-20000-0-01062"}, {"@type": "SensorSystem", "id": "SN9580", "name": "TYNSET - HANSMOEN", "shortName": "Tynset", "country": "Norge", "countryCode": "NO", "wmoId": 1265, "geometry": {"@type": "Point", "coordinates": [10.732, 62.2695], "nearest": false}, "masl": 482, "validFrom": "2001-07-01T00:00:00.000Z", "county": "INNLANDET", "countyId": 34, "municipality": "TYNSET", "municipalityId": 3427, "stationHolders": ["MET.NO"], "externalIds": ["01265", "10.249.1.25"], "wigosId": "0-20000-0-01265"}, {"@type": "SensorSystem", "id": "SN99370", "name": "KIRKENES LUFTHAVN", "shortName": "Kirkenes LH", "country": "Norge", "countryCode": "NO", "wmoId": 1089, "geometry": {"@type": "Point", "coordinates": [29.8977, 69.7255], "nearest": false}, "masl": 89, "validFrom": "1940-11-01T00:00:00.000Z", "county": "TROMS OG FINNMARK", "countyId": 54, "municipality": "S\u00d8R-VARANGER", "municipalityId": 5444, "stationHolders": ["AVINOR"], "externalIds": ["01089", "10.249.0.54", "ENKR"], "icaoCodes": ["ENKR"], "wigosId": "0-20000-0-01089"}, {"@type": "SensorSystem", "id": "SN69380", "name": "MER\u00c5KER - VARDETUN", "shortName": "Mer\u00e5ker", "country": "Norge", "countryCode": "NO", "wmoId": 1293, "geometry": {"@type": "Point", "coordinates": [11.7277, 63.4115], "nearest": false}, "masl": 169, "validFrom": "2004-04-15T00:00:00.000Z", "county": "TR\u00d8NDELAG", "countyId": 50, "municipality": "MER\u00c5KER", "municipalityId": 5034, "stationHolders": ["MET.NO"], "externalIds": ["01293"], "wigosId": "0-20000-0-01293"}, {"@type": "SensorSystem", "id": "SN98090", "name": "BERLEV\u00c5G LUFTHAVN", "shortName": "Berlev\u00e5g", "country": "Norge", "countryCode": "NO", "wmoId": 1083, "geometry": {"@type": "Point", "coordinates": [29.0348, 70.8708], "nearest": false}, "masl": 13, "validFrom": "1974-08-01T00:00:00.000Z", "county": "TROMS OG FINNMARK", "countyId": 54, "municipality": "BERLEV\u00c5G", "municipalityId": 5440, "stationHolders": ["AVINOR"], "externalIds": ["01083", "10.249.0.25", "ENBV"], "icaoCodes": ["ENBV"], "wigosId": "0-20000-0-01083"}, {"@type": "SensorSystem", "id": "SN33890", "name": "V\u00c5GSLI", "shortName": "V\u00e5gsli", "country": "Norge", "countryCode": "NO", "wmoId": 1434, "geometry": {"@type": "Point", "coordinates": [7.3653, 59.7662], "nearest": false}, "masl": 821, "validFrom": "1994-09-27T00:00:00.000Z", "county": "VESTFOLD OG TELEMARK", "countyId": 38, "municipality": "VINJE", "municipalityId": 3825, "stationHolders": ["STATKRAFT REGION \u00d8ST-NORGE", "MET.NO"], "externalIds": ["01434"], "wigosId": "0-20000-0-01434"}, {"@type": "SensorSystem", "id": "SN98550", "name": "VARD\u00d8 RADIO", "shortName": "Vard\u00f8 radio", "country": "Norge", "countryCode": "NO", "wmoId": 1098, "geometry": {"@type": "Point", "coordinates": [31.0962, 70.3707], "nearest": false}, "masl": 10, "validFrom": "1829-06-01T00:00:00.000Z", "county": "TROMS OG FINNMARK", "countyId": 54, "municipality": "VARD\u00d8", "municipalityId": 5404, "stationHolders": ["MET.NO"], "externalIds": ["01098", "10.249.0.26", "10.249.1.53", "LGV"], "shipCodes": ["LGV"]}, {"@type": "SensorSystem", "id": "SN4920", "name": "\u00c5RNES", "shortName": "\u00c5rnes", "country": "Norge", "countryCode": "NO", "geometry": {"@type": "Point", "coordinates": [11.3933, 60.1268], "nearest": false}, "masl": 160, "validFrom": "1998-12-01T00:00:00.000Z", "county": "VIKEN", "countyId": 30, "municipality": "NES", "municipalityId": 3034, "stationHolders": ["NIBIO"], "externalIds": ["1507", "20"], "wigosId": "0-578-0-4920"}, {"@type": "SensorSystem", "id": "SN1400", "name": "BREKKE SLUSE", "shortName": "Brekke sluse", "country": "Norge", "countryCode": "NO", "geometry": {"@type": "Point", "coordinates": [11.5583, 59.1477], "nearest": false}, "masl": 114, "validFrom": "1925-11-01T00:00:00.000Z", "county": "VIKEN", "countyId": 30, "municipality": "HALDEN", "municipalityId": 3001, "stationHolders": ["HALDENVASSDRAGETS BRUKSEIERFORENING"], "wigosId": "0-578-0-1400"}, {"@type": "SensorSystem", "id": "SN17280", "name": "GULLHOLMEN", "shortName": "Gullholmen", "country": "Norge", "countryCode": "NO", "wmoId": 1460, "geometry": {"@type": "Point", "coordinates": [10.578, 59.4352], "nearest": false}, "masl": 14, "validFrom": "2000-11-01T00:00:00.000Z", "county": "VIKEN", "countyId": 30, "municipality": "MOSS", "municipalityId": 3002, "stationHolders": ["MET.NO"], "externalIds": ["01460", "10.249.0.190"], "wigosId": "0-20000-0-01460"}, {"@type": "SensorSystem", "id": "SN74350", "name": "NAMSSKOGAN", "shortName": "Namsskogan", "country": "Norge", "countryCode": "NO", "wmoId": 1281, "geometry": {"@type": "Point", "coordinates": [12.846, 64.7422], "nearest": false}, "masl": 140, "validFrom": "1895-07-01T00:00:00.000Z", "county": "TR\u00d8NDELAG", "countyId": 50, "municipality": "NAMSSKOGAN", "municipalityId": 5044, "stationHolders": ["MET.NO"], "externalIds": ["01281"], "wigosId": "0-20000-0-01281"}, {"@type": "SensorSystem", "id": "SN25830", "name": "FINSEVATN", "shortName": "Finse", "country": "Norge", "countryCode": "NO", "wmoId": 1350, "geometry": {"@type": "Point", "coordinates": [7.527, 60.5938], "nearest": false}, "masl": 1210, "validFrom": "1993-10-01T00:00:00.000Z", "county": "VESTLAND", "countyId": 46, "municipality": "ULVIK", "municipalityId": 4620, "stationHolders": ["H\u00d8YFJELLS\u00d8KOLOGISK FORSKNINGSSTASJON", "MET.NO"], "externalIds": ["01350", "10.249.0.208"], "wigosId": "0-20000-0-01350"}, {"@type": "SensorSystem", "id": "SN91740", "name": "S\u00d8RKJOSEN LUFTHAVN", "shortName": "S\u00f8rkjosen", "country": "Norge", "countryCode": "NO", "wmoId": 1046, "geometry": {"@type": "Point", "coordinates": [20.9553, 69.7887], "nearest": false}, "masl": 6, "validFrom": "1974-08-01T00:00:00.000Z", "county": "TROMS OG FINNMARK", "countyId": 54, "municipality": "NORDREISA", "municipalityId": 5428, "stationHolders": ["AVINOR"], "externalIds": ["01046", "10.249.0.40", "ENSR"], "icaoCodes": ["ENSR"], "wigosId": "0-20000-0-01046"}, {"@type": "SensorSystem", "id": "SN13030", "name": "GAUSDAL - FOLLEBU", "shortName": "Follebu", "country": "Norge", "countryCode": "NO", "geometry": {"@type": "Point", "coordinates": [10.2588, 61.2247], "nearest": false}, "masl": 375, "validFrom": "2005-01-01T00:00:00.000Z", "county": "INNLANDET", "countyId": 34, "municipality": "GAUSDAL", "municipalityId": 3441, "stationHolders": ["NIBIO"], "externalIds": ["35"], "wigosId": "0-578-0-13030"}, {"@type": "SensorSystem", "id": "SN2650", "name": "AURSKOG II", "shortName": "Aurskog", "country": "Norge", "countryCode": "NO", "wmoId": 1484, "geometry": {"@type": "Point", "coordinates": [11.5801, 59.9119], "nearest": false}, "masl": 128, "validFrom": "2007-11-28T00:00:00.000Z", "county": "VIKEN", "countyId": 30, "municipality": "AURSKOG-H\u00d8LAND", "municipalityId": 3026, "stationHolders": ["MET.NO"], "externalIds": ["01484", "10.249.0.156"], "wigosId": "0-20000-0-01484"}, {"@type": "SensorSystem", "id": "SN26820", "name": "HOKKSUND", "shortName": "Hokksund", "country": "Norge", "countryCode": "NO", "geometry": {"@type": "Point", "coordinates": [9.8922, 59.7613], "nearest": false}, "masl": 15, "validFrom": "2005-01-01T00:00:00.000Z", "county": "VIKEN", "countyId": 30, "municipality": "\u00d8VRE EIKER", "municipalityId": 3048, "stationHolders": ["NIBIO"], "externalIds": ["15"], "wigosId": "0-578-0-26820"}, {"@type": "SensorSystem", "id": "SN35860", "name": "LYNG\u00d8R FYR", "shortName": "Lyng\u00f8r fyr", "country": "Norge", "countryCode": "NO", "wmoId": 1467, "geometry": {"@type": "Point", "coordinates": [9.1479, 58.6361], "nearest": false}, "masl": 4, "validFrom": "1920-07-01T00:00:00.000Z", "county": "AGDER", "countyId": 42, "municipality": "TVEDESTRAND", "municipalityId": 4213, "stationHolders": ["MET.NO"], "externalIds": ["01467", "10.249.0.216"], "wigosId": "0-20000-0-01467"}, {"@type": "SensorSystem", "id": "SN58900", "name": "STRYN - KROKEN", "shortName": "Stryn", "country": "Norge", "countryCode": "NO", "wmoId": 1321, "geometry": {"@type": "Point", "coordinates": [6.5585, 61.9157], "nearest": false}, "masl": 208, "validFrom": "1993-11-01T00:00:00.000Z", "county": "VESTLAND", "countyId": 46, "municipality": "STRYN", "municipalityId": 4651, "stationHolders": ["MET.NO"], "externalIds": ["01321", "10.249.0.90"], "wigosId": "0-20000-0-01321"}, {"@type": "SensorSystem", "id": "SN99910", "name": "NY-\u00c5LESUND", "shortName": "Ny-\u00c5lesund", "country": "Svalbard og Jan Mayen", "countryCode": "SJ", "wmoId": 1007, "geometry": {"@type": "Point", "coordinates": [11.9312, 78.9243], "nearest": false}, "masl": 8, "validFrom": "1974-07-26T00:00:00.000Z", "county": "SVALBARD", "countyId": 21, "municipality": "SVALBARD", "municipalityId": 2100, "stationHolders": ["STIFTUNG ALFRED-WEGENER-INSTITUT FUR POLAR- UND MEERESFORSCHUNG", "MET.NO"], "externalIds": ["01007", "193.156.10.28"], "wigosId": "0-20000-0-01007"}, {"@type": "SensorSystem", "id": "SN10380", "name": "R\u00d8ROS LUFTHAVN", "shortName": "R\u00f8ros", "country": "Norge", "countryCode": "NO", "wmoId": 1288, "geometry": {"@type": "Point", "coordinates": [11.3518, 62.5773], "nearest": false}, "masl": 625, "validFrom": "1957-08-01T00:00:00.000Z", "county": "TR\u00d8NDELAG", "countyId": 50, "municipality": "R\u00d8ROS", "municipalityId": 5025, "stationHolders": ["AVINOR"], "externalIds": ["01288", "10.249.0.69", "ENRO"], "icaoCodes": ["ENRO"], "wigosId": "0-20000-0-01288"}, {"@type": "SensorSystem", "id": "SN76900", "name": "MIKE", "shortName": "MIKE", "country": "Norge", "countryCode": "NO", "geometry": {"@type": "Point", "coordinates": [2, 66], "nearest": false}, "masl": 2, "validFrom": "1949-01-01T00:00:00.000Z", "county": "NORSKEHAVET", "countyId": 24, "municipality": "NORSKEHAVET", "municipalityId": 2400, "stationHolders": ["HAVFORSKNINGSINSTITUTTET"], "externalIds": ["4YM", "6301000", "BUOY2", "C7M", "LDWR"], "shipCodes": ["4YM", "6301000", "BUOY2", "C7M", "LDWR"], "wigosId": "0-578-0-76900"}, {"@type": "SensorSystem", "id": "SN64510", "name": "TINGVOLL", "shortName": "Tingvoll", "country": "Norge", "countryCode": "NO", "geometry": {"@type": "Point", "coordinates": [8.1862, 62.9133], "nearest": false}, "masl": 23, "validFrom": "1992-01-01T00:00:00.000Z", "county": "M\u00d8RE OG ROMSDAL", "countyId": 15, "municipality": "TINGVOLL", "municipalityId": 1560, "stationHolders": ["NIBIO"], "externalIds": ["39"], "wigosId": "0-578-0-64510"}, {"@type": "SensorSystem", "id": "SN56420", "name": "FURENESET", "shortName": "Fureneset", "country": "Norge", "countryCode": "NO", "wmoId": 1308, "geometry": {"@type": "Point", "coordinates": [5.0443, 61.2928], "nearest": false}, "masl": 7, "validFrom": "1972-01-01T00:00:00.000Z", "county": "VESTLAND", "countyId": 46, "municipality": "FJALER", "municipalityId": 4646, "stationHolders": ["NIBIO"], "externalIds": ["01308", "1308", "26"], "wigosId": "0-20000-0-01308"}, {"@type": "SensorSystem", "id": "SN12180", "name": "ILSENG", "shortName": "Ilseng", "country": "Norge", "countryCode": "NO", "geometry": {"@type": "Point", "coordinates": [11.2028, 60.8028], "nearest": false}, "masl": 182, "validFrom": "1959-06-01T00:00:00.000Z", "county": "INNLANDET", "countyId": 34, "municipality": "HAMAR", "municipalityId": 3403, "stationHolders": ["NIBIO"], "externalIds": ["12"], "wigosId": "0-578-0-12180"}, {"@type": "SensorSystem", "id": "SN77280", "name": "LAKSFORS", "shortName": "Laksfors", "country": "Norge", "countryCode": "NO", "wmoId": 1133, "geometry": {"@type": "Point", "coordinates": [13.2892, 65.6215], "nearest": false}, "masl": 50, "validFrom": "2011-11-29T00:00:00.000Z", "county": "NORDLAND", "countyId": 18, "municipality": "GRANE", "municipalityId": 1825, "stationHolders": ["BANE NOR"], "externalIds": ["01133", "10.249.0.79"], "wigosId": "0-20000-0-01133"}, {"@type": "SensorSystem", "id": "SN60945", "name": "\u00c5LESUND IV", "shortName": "\u00c5lesund", "country": "Norge", "countryCode": "NO", "wmoId": 1224, "geometry": {"@type": "Point", "coordinates": [6.2108, 62.4703], "nearest": false}, "masl": 15, "validFrom": "2009-06-24T00:00:00.000Z", "county": "M\u00d8RE OG ROMSDAL", "countyId": 15, "municipality": "\u00c5LESUND", "municipalityId": 1507, "stationHolders": ["\u00c5LESUND KOMMUNE"], "externalIds": ["01224", "10.249.0.115"], "wigosId": "0-20000-0-01224"}, {"@type": "SensorSystem", "id": "SN29950", "name": "SVENNER FYR", "shortName": "Svenner fyr", "country": "Norge", "countryCode": "NO", "wmoId": 1478, "geometry": {"@type": "Point", "coordinates": [10.148, 58.9688], "nearest": false}, "masl": 15, "validFrom": "2000-12-01T00:00:00.000Z", "county": "VESTFOLD OG TELEMARK", "countyId": 38, "municipality": "LARVIK", "municipalityId": 3805, "stationHolders": ["MET.NO"], "externalIds": ["01478", "10.249.0.191"], "wigosId": "0-20000-0-01478"}, {"@type": "SensorSystem", "id": "SN98360", "name": "B\u00c5TSFJORD - STRAUMSNESAKSLA", "shortName": "B\u00e5tsfjord", "country": "Norge", "countryCode": "NO", "wmoId": 1086, "geometry": {"@type": "Point", "coordinates": [29.7, 70.6028], "nearest": false}, "masl": 152, "validFrom": "1999-09-09T00:00:00.000Z", "county": "TROMS OG FINNMARK", "countyId": 54, "municipality": "B\u00c5TSFJORD", "municipalityId": 5443, "stationHolders": ["AVINOR"], "externalIds": ["01086", "10.249.0.24", "ENBS"], "icaoCodes": ["ENBS"], "wigosId": "0-20000-0-01086"}, {"@type": "SensorSystem", "id": "SN39750", "name": "BYGLANDSFJORD - NESET", "shortName": "Byglandsfjord ", "country": "Norge", "countryCode": "NO", "wmoId": 1442, "geometry": {"@type": "Point", "coordinates": [7.803, 58.6863], "nearest": false}, "masl": 207, "validFrom": "2011-09-23T00:00:00.000Z", "county": "AGDER", "countyId": 42, "municipality": "BYGLAND", "municipalityId": 4220, "stationHolders": ["MET.NO"], "externalIds": ["01442", "10.249.0.186"], "wigosId": "0-20000-0-01442"}, {"@type": "SensorSystem", "id": "SN30530", "name": "NOTODDEN", "shortName": "Notodden", "country": "Norge", "countryCode": "NO", "geometry": {"@type": "Point", "coordinates": [9.2643, 59.5688], "nearest": false}, "masl": 34, "validFrom": "1923-01-01T00:00:00.000Z", "county": "VESTFOLD OG TELEMARK", "countyId": 38, "municipality": "NOTODDEN", "municipalityId": 3808, "stationHolders": ["TINFOS A/S"], "wigosId": "0-578-0-30530"}, {"@type": "SensorSystem", "id": "SN99927", "name": "VERLEGENHUKEN", "shortName": "Verlegenhuken", "country": "Svalbard og Jan Mayen", "countryCode": "SJ", "wmoId": 1002, "geometry": {"@type": "Point", "coordinates": [16.25, 80.0592], "nearest": false}, "masl": 8, "validFrom": "1997-08-07T00:00:00.000Z", "county": "SVALBARD", "countyId": 21, "municipality": "SVALBARD", "municipalityId": 2100, "stationHolders": ["MET.NO"], "externalIds": ["01002", "300134010702150"], "wigosId": "0-20000-0-01002"}, {"@type": "SensorSystem", "id": "SN42160", "name": "LISTA FYR", "shortName": "Lista fyr", "country": "Norge", "countryCode": "NO", "wmoId": 1427, "geometry": {"@type": "Point", "coordinates": [6.5675, 58.109], "nearest": false}, "masl": 14, "validFrom": "1867-07-01T00:00:00.000Z", "county": "AGDER", "countyId": 42, "municipality": "FARSUND", "municipalityId": 4206, "stationHolders": ["MET.NO"], "externalIds": ["01427", "10.249.0.211"], "wigosId": "0-20000-0-01427"}, {"@type": "SensorSystem", "id": "SN68860", "name": "TRONDHEIM - VOLL", "shortName": "Trondheim", "country": "Norge", "countryCode": "NO", "wmoId": 1257, "geometry": {"@type": "Point", "coordinates": [10.4538, 63.4107], "nearest": false}, "masl": 127, "validFrom": "1923-01-01T00:00:00.000Z", "county": "TR\u00d8NDELAG", "countyId": 50, "municipality": "TRONDHEIM", "municipalityId": 5001, "stationHolders": ["MET.NO"], "externalIds": ["01257", "10.249.0.160"], "wigosId": "0-20000-0-01257"}, {"@type": "SensorSystem", "id": "SN79764", "name": "HJART\u00c5SEN", "shortName": "Dunderlandsdalen", "country": "Norge", "countryCode": "NO", "wmoId": 1150, "geometry": {"@type": "Point", "coordinates": [14.954, 66.4993], "nearest": false}, "masl": 251, "validFrom": "2009-02-04T00:00:00.000Z", "county": "NORDLAND", "countyId": 18, "municipality": "RANA", "municipalityId": 1833, "stationHolders": ["BANE NOR"], "externalIds": ["01150", "10.249.0.83"], "wigosId": "0-20000-0-01150"}, {"@type": "SensorSystem", "id": "SN85380", "name": "SKROVA FYR", "shortName": "Skrova fyr", "country": "Norge", "countryCode": "NO", "wmoId": 1160, "geometry": {"@type": "Point", "coordinates": [14.6425, 68.1528], "nearest": false}, "masl": 11, "validFrom": "1933-05-01T00:00:00.000Z", "county": "NORDLAND", "countyId": 18, "municipality": "V\u00c5GAN", "municipalityId": 1865, "stationHolders": ["MET.NO"], "externalIds": ["01160", "10.249.0.104"], "wigosId": "0-20000-0-01160"}, {"@type": "SensorSystem", "id": "SN53530", "name": "MIDTSTOVA", "shortName": "Midtstova", "country": "Norge", "countryCode": "NO", "wmoId": 1346, "geometry": {"@type": "Point", "coordinates": [7.2755, 60.6563], "nearest": false}, "masl": 1162, "validFrom": "2011-11-22T00:00:00.000Z", "county": "VESTLAND", "countyId": 46, "municipality": "ULVIK", "municipalityId": 4620, "stationHolders": ["BANE NOR"], "externalIds": ["01346", "10.249.0.128", "10.249.0.187"], "wigosId": "0-20000-0-01346"}, {"@type": "SensorSystem", "id": "SN41825", "name": "LYNGDAL", "shortName": "Lyngdal", "country": "Norge", "countryCode": "NO", "geometry": {"@type": "Point", "coordinates": [7.0452, 58.134], "nearest": false}, "masl": 6, "validFrom": "2005-01-01T00:00:00.000Z", "county": "AGDER", "countyId": 42, "municipality": "LYNGDAL", "municipalityId": 4225, "stationHolders": ["NIBIO"], "externalIds": ["41"], "wigosId": "0-578-0-41825"}, {"@type": "SensorSystem", "id": "SN93700", "name": "KAUTOKEINO", "shortName": "Kautokeino", "country": "Norge", "countryCode": "NO", "wmoId": 1047, "geometry": {"@type": "Point", "coordinates": [23.0335, 68.9968], "nearest": false}, "masl": 307, "validFrom": "1868-01-01T00:00:00.000Z", "county": "TROMS OG FINNMARK", "countyId": 54, "municipality": "KAUTOKEINO", "municipalityId": 5430, "stationHolders": ["MET.NO"], "externalIds": ["01047", "10.249.0.210"], "wigosId": "0-20000-0-01047"}, {"@type": "SensorSystem", "id": "SN27470", "name": "TORP", "shortName": "Torp", "country": "Norge", "countryCode": "NO", "wmoId": 1483, "geometry": {"@type": "Point", "coordinates": [10.2553, 59.1845], "nearest": false}, "masl": 88, "validFrom": "1959-09-01T00:00:00.000Z", "county": "VESTFOLD OG TELEMARK", "countyId": 38, "municipality": "SANDEFJORD", "municipalityId": 3804, "stationHolders": ["SANDEFJORD LUFTHAVN TORP"], "externalIds": ["01483", "10.249.0.140", "ENTO"], "icaoCodes": ["ENTO"], "wigosId": "0-20000-0-01483"}, {"@type": "SensorSystem", "id": "SN75550", "name": "SKLINNA FYR", "shortName": "Sklinna fyr", "country": "Norge", "countryCode": "NO", "wmoId": 1102, "geometry": {"@type": "Point", "coordinates": [10.9965, 65.2023], "nearest": false}, "masl": 23, "validFrom": "1974-11-01T00:00:00.000Z", "county": "TR\u00d8NDELAG", "countyId": 50, "municipality": "LEKA", "municipalityId": 5052, "stationHolders": ["MET.NO"], "externalIds": ["01102", "10.249.1.57"], "wigosId": "0-20000-0-01102"}, {"@type": "SensorSystem", "id": "SN72580", "name": "NAMSOS LUFTHAVN", "shortName": "Namsos LH", "country": "Norge", "countryCode": "NO", "wmoId": 1290, "geometry": {"@type": "Point", "coordinates": [11.5705, 64.4708], "nearest": false}, "masl": 2, "validFrom": "1968-07-01T00:00:00.000Z", "county": "TR\u00d8NDELAG", "countyId": 50, "municipality": "NAMSOS", "municipalityId": 5007, "stationHolders": ["AVINOR"], "externalIds": ["01290", "10.249.0.33", "ENNM"], "icaoCodes": ["ENNM"], "wigosId": "0-20000-0-01290"}, {"@type": "SensorSystem", "id": "SN38140", "name": "LANDVIK", "shortName": "Landvik", "country": "Norge", "countryCode": "NO", "wmoId": 1464, "geometry": {"@type": "Point", "coordinates": [8.5225, 58.34], "nearest": false}, "masl": 6, "validFrom": "1957-01-01T00:00:00.000Z", "county": "AGDER", "countyId": 42, "municipality": "GRIMSTAD", "municipalityId": 4202, "stationHolders": ["NIBIO"], "externalIds": ["01464", "1464", "24"], "wigosId": "0-20000-0-01464"}, {"@type": "SensorSystem", "id": "SN15890", "name": "GROTLI III", "shortName": "Grotli", "country": "Norge", "countryCode": "NO", "wmoId": 1361, "geometry": {"@type": "Point", "coordinates": [7.6637, 62.0162], "nearest": false}, "masl": 872, "validFrom": "2008-10-01T00:00:00.000Z", "county": "INNLANDET", "countyId": 34, "municipality": "SKJ\u00c5K", "municipalityId": 3433, "stationHolders": ["MET.NO"], "externalIds": ["01361", "10.249.0.105"], "wigosId": "0-20000-0-01361"}, {"@type": "SensorSystem", "id": "SN39100", "name": "OKS\u00d8Y FYR", "shortName": "Oks\u00f8y fyr", "country": "Norge", "countryCode": "NO", "wmoId": 1448, "geometry": {"@type": "Point", "coordinates": [8.0532, 58.0732], "nearest": false}, "masl": 9, "validFrom": "1864-05-01T00:00:00.000Z", "county": "AGDER", "countyId": 42, "municipality": "KRISTIANSAND", "municipalityId": 4204, "stationHolders": ["MET.NO"], "externalIds": ["01448", "10.249.1.65"], "wigosId": "0-20000-0-01448"}, {"@type": "SensorSystem", "id": "SN93900", "name": "SIHCCAJAVRI", "shortName": "\u0160ih\u010d\u010daj\u00e1vri", "country": "Norge", "countryCode": "NO", "wmoId": 1199, "geometry": {"@type": "Point", "coordinates": [23.5387, 68.7553], "nearest": false}, "masl": 382, "validFrom": "1913-04-01T00:00:00.000Z", "county": "TROMS OG FINNMARK", "countyId": 54, "municipality": "KAUTOKEINO", "municipalityId": 5430, "stationHolders": ["MET.NO", "NVE"], "externalIds": ["01199", "212.23", "300134010806040"], "wigosId": "0-20000-0-01199"}, {"@type": "SensorSystem", "id": "SN7950", "name": "RENA FLYPLASS", "shortName": "Rena flyplass", "country": "Norge", "countryCode": "NO", "wmoId": 1389, "geometry": {"@type": "Point", "coordinates": [11.3747, 61.1847], "nearest": false}, "masl": 255, "validFrom": "2011-12-09T00:00:00.000Z", "county": "INNLANDET", "countyId": 34, "municipality": "\u00c5MOT", "municipalityId": 3422, "stationHolders": ["MET.NO"], "externalIds": ["01389", "10.249.0.117"], "wigosId": "0-20000-0-01389"}, {"@type": "SensorSystem", "id": "SN59110", "name": "KR\u00c5KENES", "shortName": "Kr\u00e5kenes", "country": "Norge", "countryCode": "NO", "wmoId": 1203, "geometry": {"@type": "Point", "coordinates": [4.986, 62.034], "nearest": false}, "masl": 75, "validFrom": "1991-10-01T00:00:00.000Z", "county": "VESTLAND", "countyId": 46, "municipality": "KINN", "municipalityId": 4602, "stationHolders": ["MET.NO"], "externalIds": ["01203"], "wigosId": "0-20000-0-01203"}, {"@type": "SensorSystem", "id": "SN85840", "name": "V\u00c6R\u00d8Y HELIPORT", "shortName": "V\u00e6r\u00f8y", "country": "Norge", "countryCode": "NO", "wmoId": 1139, "geometry": {"@type": "Point", "coordinates": [12.7228, 67.6527], "nearest": false}, "masl": 4, "validFrom": "1997-02-20T00:00:00.000Z", "county": "NORDLAND", "countyId": 18, "municipality": "V\u00c6R\u00d8Y", "municipalityId": 1857, "stationHolders": ["AVINOR"], "externalIds": ["01139", "10.249.0.35", "ENVR"], "icaoCodes": ["ENVR"], "wigosId": "0-20000-0-01139"}, {"@type": "SensorSystem", "id": "SN67280", "name": "SOKNEDAL", "shortName": "Soknedal", "country": "Norge", "countryCode": "NO", "wmoId": 1253, "geometry": {"@type": "Point", "coordinates": [10.1788, 62.9535], "nearest": false}, "masl": 299, "validFrom": "2007-12-20T00:00:00.000Z", "county": "TR\u00d8NDELAG", "countyId": 50, "municipality": "MIDTRE GAULDAL", "municipalityId": 5027, "stationHolders": ["BANE NOR"], "externalIds": ["01253", "10.249.0.75"], "wigosId": "0-20000-0-01253"}, {"@type": "SensorSystem", "id": "SN92350", "name": "NORDSTRAUM I KV\u00c6NANGEN", "shortName": "Nordstraum", "country": "Norge", "countryCode": "NO", "wmoId": 1045, "geometry": {"@type": "Point", "coordinates": [21.8958, 69.8362], "nearest": false}, "masl": 20, "validFrom": "1965-08-01T00:00:00.000Z", "county": "TROMS OG FINNMARK", "countyId": 54, "municipality": "KV\u00c6NANGEN", "municipalityId": 5429, "stationHolders": ["MET.NO"], "externalIds": ["01045"]}, {"@type": "SensorSystem", "id": "SN31970", "name": "GAUSTATOPPEN", "shortName": "Gaustatoppen", "country": "Norge", "countryCode": "NO", "wmoId": 1461, "geometry": {"@type": "Point", "coordinates": [8.6562, 59.8497], "nearest": false}, "masl": 1804, "validFrom": "1935-09-01T00:00:00.000Z", "county": "VESTFOLD OG TELEMARK", "countyId": 38, "municipality": "TINN", "municipalityId": 3818, "stationHolders": ["MET.NO"], "externalIds": ["01461", "10.249.0.240"], "wigosId": "0-20000-0-01461"}, {"@type": "SensorSystem", "id": "SN45870", "name": "FISTER - SIGMUNDSTAD", "shortName": "Fister", "country": "Norge", "countryCode": "NO", "wmoId": 1422, "geometry": {"@type": "Point", "coordinates": [6.0365, 59.16], "nearest": false}, "masl": 30, "validFrom": "2007-05-29T00:00:00.000Z", "county": "ROGALAND", "countyId": 11, "municipality": "HJELMELAND", "municipalityId": 1133, "stationHolders": ["MET.NO"], "externalIds": ["01422"], "wigosId": "0-20000-0-01422"}, {"@type": "SensorSystem", "id": "SN82110", "name": "VALNESFJORD", "shortName": "Valnesfjord", "country": "Norge", "countryCode": "NO", "geometry": {"@type": "Point", "coordinates": [15.1018, 67.2763], "nearest": false}, "masl": 20, "validFrom": "2014-06-11T00:00:00.000Z", "county": "NORDLAND", "countyId": 18, "municipality": "FAUSKE", "municipalityId": 1841, "stationHolders": ["NIBIO"], "externalIds": ["144"], "wigosId": "0-578-0-82110"}, {"@type": "SensorSystem", "id": "SN60990", "name": "VIGRA", "shortName": "Vigra", "country": "Norge", "countryCode": "NO", "wmoId": 1210, "geometry": {"@type": "Point", "coordinates": [6.115, 62.5617], "nearest": false}, "masl": 22, "validFrom": "1958-07-01T00:00:00.000Z", "county": "M\u00d8RE OG ROMSDAL", "countyId": 15, "municipality": "GISKE", "municipalityId": 1532, "stationHolders": ["AVINOR"], "externalIds": ["01210", "10.249.0.154", "10.249.0.59", "ENAL"], "icaoCodes": ["ENAL"], "wigosId": "0-20000-0-01210"}, {"@type": "SensorSystem", "id": "SN71990", "name": "BUHOLMR\u00c5SA FYR", "shortName": "Buholmr\u00e5sa fyr", "country": "Norge", "countryCode": "NO", "wmoId": 1259, "geometry": {"@type": "Point", "coordinates": [10.455, 64.4013], "nearest": false}, "masl": 18, "validFrom": "1965-11-01T00:00:00.000Z", "county": "TR\u00d8NDELAG", "countyId": 50, "municipality": "OSEN", "municipalityId": 5020, "stationHolders": ["MET.NO"], "externalIds": ["01259", "10.249.0.72"], "wigosId": "0-20000-0-01259"}, {"@type": "SensorSystem", "id": "SN23410", "name": "FAGERNES LUFTHAMN", "shortName": "Fagernes LH", "country": "Norge", "countryCode": "NO", "wmoId": 1368, "geometry": {"@type": "Point", "coordinates": [9.2928, 61.0128], "nearest": false}, "masl": 822, "validFrom": "1987-01-01T00:00:00.000Z", "county": "INNLANDET", "countyId": 34, "municipality": "NORD-AURDAL", "municipalityId": 3451, "stationHolders": ["AVINOR"], "externalIds": ["01368", "10.249.0.70", "ENFG"], "icaoCodes": ["ENFG"], "wigosId": "0-20000-0-01368"}, {"@type": "SensorSystem", "id": "SN27450", "name": "MELSOM", "shortName": "Melsom", "country": "Norge", "countryCode": "NO", "wmoId": 1481, "geometry": {"@type": "Point", "coordinates": [10.3483, 59.23], "nearest": false}, "masl": 26, "validFrom": "1959-04-01T00:00:00.000Z", "county": "VESTFOLD OG TELEMARK", "countyId": 38, "municipality": "SANDEFJORD", "municipalityId": 3804, "stationHolders": ["MET.NO"], "externalIds": ["01481", "10.249.0.131"], "wigosId": "0-20000-0-01481"}, {"@type": "SensorSystem", "id": "SN43010", "name": "EIK - HOVE", "shortName": "Eik - Hove", "country": "Norge", "countryCode": "NO", "wmoId": 1425, "geometry": {"@type": "Point", "coordinates": [6.5045, 58.507], "nearest": false}, "masl": 65, "validFrom": "1998-02-19T00:00:00.000Z", "county": "ROGALAND", "countyId": 11, "municipality": "LUND", "municipalityId": 1112, "stationHolders": ["MET.NO"], "externalIds": ["01425", "10.249.1.24"], "wigosId": "0-20000-0-01425"}, {"@type": "SensorSystem", "id": "SN32890", "name": "H\u00d8YDALSMO II", "shortName": "H\u00f8ydalsmo", "country": "Norge", "countryCode": "NO", "wmoId": 1447, "geometry": {"@type": "Point", "coordinates": [8.1992, 59.497], "nearest": false}, "masl": 560, "validFrom": "2006-08-23T00:00:00.000Z", "county": "VESTFOLD OG TELEMARK", "countyId": 38, "municipality": "TOKKE", "municipalityId": 3824, "stationHolders": ["MET.NO"], "externalIds": ["01447"], "wigosId": "0-20000-0-01447"}, {"@type": "SensorSystem", "id": "SN99990", "name": "TROLL I ANTARKTIS", "shortName": "Troll Antarktis", "country": "Norges stasjoner i Antarktis", "countryCode": "AQ", "wmoId": 89504, "geometry": {"@type": "Point", "coordinates": [2.5408, -72.012], "nearest": false}, "masl": 1310, "validFrom": "2005-05-23T00:00:00.000Z", "municipality": "Dronning Maud Land", "municipalityId": 7106001, "stationHolders": ["NORSK POLARINSTITUTT"], "externalIds": ["89504"], "wigosId": "0-20000-0-89504"}, {"@type": "SensorSystem", "id": "SN67560", "name": "KOTS\u00d8Y", "shortName": "Kots\u00f8y", "country": "Norge", "countryCode": "NO", "wmoId": 1254, "geometry": {"@type": "Point", "coordinates": [10.5608, 62.9763], "nearest": false}, "masl": 127, "validFrom": "2007-11-27T00:00:00.000Z", "county": "TR\u00d8NDELAG", "countyId": 50, "municipality": "MIDTRE GAULDAL", "municipalityId": 5027, "stationHolders": ["BANE NOR"], "externalIds": ["01254", "10.249.0.76"], "wigosId": "0-20000-0-01254"}, {"@type": "SensorSystem", "id": "SN79600", "name": "MO I RANA LUFTHAVN", "shortName": "Mo i Rana LH", "country": "Norge", "countryCode": "NO", "wmoId": 1151, "geometry": {"@type": "Point", "coordinates": [14.3015, 66.3643], "nearest": false}, "masl": 70, "validFrom": "1968-07-01T00:00:00.000Z", "county": "NORDLAND", "countyId": 18, "municipality": "RANA", "municipalityId": 1833, "stationHolders": ["AVINOR"], "externalIds": ["01151", "10.249.0.130", "10.249.0.16", "ENRA"], "icaoCodes": ["ENRA"], "wigosId": "0-20000-0-01151"}, {"@type": "SensorSystem", "id": "SN50310", "name": "KVAMSKOGEN - JONSH\u00d8GDI", "shortName": "Kvamskogen", "country": "Norge", "countryCode": "NO", "wmoId": 1327, "geometry": {"@type": "Point", "coordinates": [5.964, 60.3887], "nearest": false}, "masl": 455, "validFrom": "2006-08-01T00:00:00.000Z", "county": "VESTLAND", "countyId": 46, "municipality": "KVAM", "municipalityId": 4622, "stationHolders": ["MET.NO"], "externalIds": ["01327", "10.249.0.236"], "wigosId": "0-20000-0-01327"}, {"@type": "SensorSystem", "id": "SN19940", "name": "LIER", "shortName": "Lier", "country": "Norge", "countryCode": "NO", "geometry": {"@type": "Point", "coordinates": [10.2598, 59.7908], "nearest": false}, "masl": 39, "validFrom": "2005-01-01T00:00:00.000Z", "county": "VIKEN", "countyId": 30, "municipality": "LIER", "municipalityId": 3049, "stationHolders": ["NIBIO"], "externalIds": ["19"], "wigosId": "0-578-0-19940"}, {"@type": "SensorSystem", "id": "SN35210", "name": "GJERSTAD JERNBANESTASJON", "shortName": "Gjerstad", "country": "Norge", "countryCode": "NO", "wmoId": 1449, "geometry": {"@type": "Point", "coordinates": [9.0263, 58.87], "nearest": false}, "masl": 32, "validFrom": "2012-01-04T00:00:00.000Z", "county": "AGDER", "countyId": 42, "municipality": "GJERSTAD", "municipalityId": 4211, "stationHolders": ["BANE NOR"], "externalIds": ["01449", "10.249.0.170"], "wigosId": "0-20000-0-01449"}, {"@type": "SensorSystem", "id": "SN36200", "name": "TORUNGEN FYR", "shortName": "Torungen fyr", "country": "Norge", "countryCode": "NO", "wmoId": 1465, "geometry": {"@type": "Point", "coordinates": [8.7893, 58.3988], "nearest": false}, "masl": 12, "validFrom": "1867-07-01T00:00:00.000Z", "county": "AUST-AGDER", "countyId": 9, "municipality": "ARENDAL", "municipalityId": 906, "stationHolders": ["MET.NO"], "externalIds": ["01465", "10.249.1.173"], "wigosId": "0-20000-0-01465"}, {"@type": "SensorSystem", "id": "SN76923", "name": "GULLFAKS C", "shortName": "Gullfaks C", "country": "Norge", "countryCode": "NO", "wmoId": 1300, "geometry": {"@type": "Point", "coordinates": [2.2687, 61.2042], "nearest": false}, "masl": 80, "validFrom": "1989-11-01T00:00:00.000Z", "county": "NORDSJ\u00d8EN", "countyId": 26, "municipality": "NORDSJ\u00d8EN", "municipalityId": 2600, "stationHolders": ["STATOIL ASA"], "externalIds": ["01300", "ENGC", "LF3J"], "icaoCodes": ["ENGC"], "shipCodes": ["LF3J"], "wigosId": "0-20000-0-01300"}, {"@type": "SensorSystem", "id": "SN23720", "name": "VANG I VALDRES", "shortName": "Vang i Valdres", "country": "Norge", "countryCode": "NO", "geometry": {"@type": "Point", "coordinates": [8.569, 61.124], "nearest": false}, "masl": 489, "validFrom": "1887-01-01T00:00:00.000Z", "county": "INNLANDET", "countyId": 34, "municipality": "VANG", "municipalityId": 3454, "stationHolders": ["MET.NO"], "wigosId": "0-578-0-23720"}, {"@type": "SensorSystem", "id": "SN61420", "name": "MARSTEIN", "shortName": "Marstein", "country": "Norge", "countryCode": "NO", "wmoId": 1232, "geometry": {"@type": "Point", "coordinates": [7.8355, 62.4458], "nearest": false}, "masl": 67, "validFrom": "2010-02-22T00:00:00.000Z", "county": "M\u00d8RE OG ROMSDAL", "countyId": 15, "municipality": "RAUMA", "municipalityId": 1539, "stationHolders": ["BANE NOR"], "externalIds": ["01232", "10.249.0.97"], "wigosId": "0-20000-0-01232"}, {"@type": "SensorSystem", "id": "SN35090", "name": "EIKELAND", "shortName": "Eikeland", "country": "Norge", "countryCode": "NO", "geometry": {"@type": "Point", "coordinates": [9.098, 58.8037], "nearest": false}, "masl": 42, "validFrom": "1980-06-01T00:00:00.000Z", "county": "AGDER", "countyId": 42, "municipality": "GJERSTAD", "municipalityId": 4211, "stationHolders": ["MET.NO"], "wigosId": "0-578-0-35090"}, {"@type": "SensorSystem", "id": "SN44080", "name": "OBRESTAD FYR", "shortName": "Obrestad fyr", "country": "Norge", "countryCode": "NO", "wmoId": 1412, "geometry": {"@type": "Point", "coordinates": [5.5553, 58.6592], "nearest": false}, "masl": 24, "validFrom": "1919-01-01T00:00:00.000Z", "county": "ROGALAND", "countyId": 11, "municipality": "H\u00c5", "municipalityId": 1119, "stationHolders": ["MET.NO"], "externalIds": ["01412", "10.249.0.185"], "wigosId": "0-20000-0-01412"}, {"@type": "SensorSystem", "id": "SN98790", "name": "VADS\u00d8 LUFTHAVN", "shortName": "Vads\u00f8 LH", "country": "Norge", "countryCode": "NO", "wmoId": 1088, "geometry": {"@type": "Point", "coordinates": [29.8352, 70.0653], "nearest": false}, "masl": 39, "validFrom": "1974-08-01T00:00:00.000Z", "county": "TROMS OG FINNMARK", "countyId": 54, "municipality": "VADS\u00d8", "municipalityId": 5405, "stationHolders": ["AVINOR"], "externalIds": ["01088", "10.249.0.178", "10.249.0.41", "ENVD"], "icaoCodes": ["ENVD"], "wigosId": "0-20000-0-01088"}, {"@type": "SensorSystem", "id": "SN12320", "name": "HAMAR - STAVSBERG", "shortName": "Hamar Stavsberg", "country": "Norge", "countryCode": "NO", "wmoId": 1385, "geometry": {"@type": "Point", "coordinates": [11.0697, 60.818], "nearest": false}, "masl": 221, "validFrom": "1956-05-18T00:00:00.000Z", "county": "INNLANDET", "countyId": 34, "municipality": "HAMAR", "municipalityId": 3403, "stationHolders": ["MET.NO"], "externalIds": ["01385", "10.249.0.93", "ENHA"], "icaoCodes": ["ENHA"], "wigosId": "0-20000-0-01385"}, {"@type": "SensorSystem", "id": "SN27500", "name": "F\u00c6RDER FYR", "shortName": "F\u00e6rder fyr", "country": "Norge", "countryCode": "NO", "wmoId": 1482, "geometry": {"@type": "Point", "coordinates": [10.5242, 59.0272], "nearest": false}, "masl": 6, "validFrom": "1885-01-01T00:00:00.000Z", "county": "VESTFOLD OG TELEMARK", "countyId": 38, "municipality": "F\u00c6RDER", "municipalityId": 3811, "stationHolders": ["MET.NO"], "externalIds": ["01482", "10.249.0.189"], "wigosId": "0-20000-0-01482"}, {"@type": "SensorSystem", "id": "SN100", "name": "PLASSEN", "shortName": "Plassen", "country": "Norge", "countryCode": "NO", "geometry": {"@type": "Point", "coordinates": [12.5039, 61.1349], "nearest": false}, "masl": 333, "validFrom": "1901-01-01T00:00:00.000Z", "county": "INNLANDET", "countyId": 34, "municipality": "TRYSIL", "municipalityId": 3421, "stationHolders": ["MET.NO"], "wigosId": "0-578-0-100"}, {"@type": "SensorSystem", "id": "SN49490", "name": "ULLENSVANG FORS\u00d8KSGARD", "shortName": "Ullensvang", "country": "Norge", "countryCode": "NO", "wmoId": 1342, "geometry": {"@type": "Point", "coordinates": [6.6538, 60.3185], "nearest": false}, "masl": 12, "validFrom": "1865-01-01T00:00:00.000Z", "county": "VESTLAND", "countyId": 46, "municipality": "ULLENSVANG", "municipalityId": 4618, "stationHolders": ["NIBIO"], "externalIds": ["01342", "1342", "40"], "wigosId": "0-20000-0-01342"}, {"@type": "SensorSystem", "id": "SN76920", "name": "EKOFISK", "shortName": "Ekofisk", "country": "Norge", "countryCode": "NO", "wmoId": 1400, "geometry": {"@type": "Point", "coordinates": [3.2244, 56.5434], "nearest": false}, "masl": 50, "validFrom": "1980-01-01T00:00:00.000Z", "county": "NORDSJ\u00d8EN", "countyId": 26, "municipality": "NORDSJ\u00d8EN", "municipalityId": 2600, "stationHolders": ["PHILLIPS PETROLEUM CO"], "externalIds": ["01400", "ENEK", "ENLE", "LF5U"], "icaoCodes": ["ENEK", "ENLE"], "shipCodes": ["LF5U"], "wigosId": "0-20000-0-01400"}, {"@type": "SensorSystem", "id": "SN32240", "name": "B\u00d8", "shortName": "B\u00f8", "country": "Norge", "countryCode": "NO", "geometry": {"@type": "Point", "coordinates": [9.0287, 59.4175], "nearest": false}, "masl": 105, "validFrom": "2005-01-01T00:00:00.000Z", "county": "VESTFOLD OG TELEMARK", "countyId": 38, "municipality": "MIDT-TELEMARK", "municipalityId": 3817, "stationHolders": ["NIBIO"], "externalIds": ["16"], "wigosId": "0-578-0-32240"}, {"@type": "SensorSystem", "id": "SN13420", "name": "VENABU", "shortName": "Venabu", "country": "Norge", "countryCode": "NO", "wmoId": 1380, "geometry": {"@type": "Point", "coordinates": [10.1082, 61.6513], "nearest": false}, "masl": 930, "validFrom": "1980-08-01T00:00:00.000Z", "county": "INNLANDET", "countyId": 34, "municipality": "RINGEBU", "municipalityId": 3439, "stationHolders": ["MET.NO"], "externalIds": ["01380", "10.249.0.165"], "wigosId": "0-20000-0-01380"}, {"@type": "SensorSystem", "id": "SN77425", "name": "MAJAVATN V", "shortName": "Majavatn", "country": "Norge", "countryCode": "NO", "wmoId": 1132, "geometry": {"@type": "Point", "coordinates": [13.3667, 65.1662], "nearest": false}, "masl": 319, "validFrom": "2007-12-19T00:00:00.000Z", "county": "NORDLAND", "countyId": 18, "municipality": "GRANE", "municipalityId": 1825, "stationHolders": ["MET.NO"], "externalIds": ["01132", "10.249.0.78"], "wigosId": "0-20000-0-01132"}, {"@type": "SensorSystem", "id": "SN11500", "name": "\u00d8STRE TOTEN - APELSVOLL", "shortName": "Apelsvoll", "country": "Norge", "countryCode": "NO", "wmoId": 1381, "geometry": {"@type": "Point", "coordinates": [10.8695, 60.7002], "nearest": false}, "masl": 264, "validFrom": "1930-09-08T00:00:00.000Z", "county": "INNLANDET", "countyId": 34, "municipality": "\u00d8STRE TOTEN", "municipalityId": 3442, "stationHolders": ["NIBIO"], "externalIds": ["01381", "1381", "22"], "wigosId": "0-20000-0-01381"}, {"@type": "SensorSystem", "id": "SN66150", "name": "ORKDAL - THAMSHAMN", "shortName": "Orkanger", "country": "Norge", "countryCode": "NO", "wmoId": 1234, "geometry": {"@type": "Point", "coordinates": [9.8495, 63.3153], "nearest": false}, "masl": 4, "validFrom": "2006-08-08T00:00:00.000Z", "county": "TR\u00d8NDELAG", "countyId": 50, "municipality": "ORKLAND", "municipalityId": 5059, "stationHolders": ["MET.NO"], "externalIds": ["01234"], "wigosId": "0-20000-0-01234"}, {"@type": "SensorSystem", "id": "SN54110", "name": "L\u00c6RDAL IV", "shortName": "L\u00e6rdal", "country": "Norge", "countryCode": "NO", "wmoId": 1355, "geometry": {"@type": "Point", "coordinates": [7.5025, 61.1033], "nearest": false}, "masl": 2, "validFrom": "2008-09-12T00:00:00.000Z", "county": "VESTLAND", "countyId": 46, "municipality": "L\u00c6RDAL", "municipalityId": 4642, "stationHolders": ["MET.NO"], "externalIds": ["01355", "10.249.0.106"], "wigosId": "0-20000-0-01355"}, {"@type": "SensorSystem", "id": "SN99950", "name": "JAN MAYEN", "shortName": "Jan Mayen", "country": "Svalbard og Jan Mayen", "countryCode": "SJ", "wmoId": 1001, "geometry": {"@type": "Point", "coordinates": [-8.669, 70.9394], "nearest": false}, "masl": 10, "validFrom": "1908-08-01T00:00:00.000Z", "county": "JAN MAYEN", "countyId": 22, "municipality": "JAN MAYEN", "municipalityId": 2211, "stationHolders": ["MET.NO"], "externalIds": ["01001", "ENJA"], "icaoCodes": ["ENJA"], "wigosId": "0-20000-0-01001"}, {"@type": "SensorSystem", "id": "SN20301", "name": "H\u00d8NEFOSS - H\u00d8YBY", "shortName": "H\u00f8nefoss", "country": "Norge", "countryCode": "NO", "wmoId": 1469, "geometry": {"@type": "Point", "coordinates": [10.2478, 60.1665], "nearest": false}, "masl": 140, "validFrom": "2005-05-30T00:00:00.000Z", "county": "VIKEN", "countyId": 30, "municipality": "RINGERIKE", "municipalityId": 3007, "stationHolders": ["MET.NO"], "externalIds": ["01469"], "wigosId": "0-20000-0-01469"}, {"@type": "SensorSystem", "id": "SN50500", "name": "FLESLAND", "shortName": "Flesland", "country": "Norge", "countryCode": "NO", "wmoId": 1311, "geometry": {"@type": "Point", "coordinates": [5.2265, 60.2892], "nearest": false}, "masl": 48, "validFrom": "1955-10-02T00:00:00.000Z", "county": "VESTLAND", "countyId": 46, "municipality": "BERGEN", "municipalityId": 4601, "stationHolders": ["AVINOR", "MET.NO"], "externalIds": ["01311", "10.249.0.174", "10.249.0.62", "ENBR"], "icaoCodes": ["ENBR"], "wigosId": "0-20000-0-01311"}, {"@type": "SensorSystem", "id": "SN76330", "name": "BR\u00d8NN\u00d8YSUND LUFTHAVN", "shortName": "Br\u00f8nn\u00f8ysund", "country": "Norge", "countryCode": "NO", "wmoId": 1112, "geometry": {"@type": "Point", "coordinates": [12.2182, 65.4567], "nearest": false}, "masl": 9, "validFrom": "1968-07-01T00:00:00.000Z", "county": "NORDLAND", "countyId": 18, "municipality": "BR\u00d8NN\u00d8Y", "municipalityId": 1813, "stationHolders": ["AVINOR"], "externalIds": ["01112", "10.249.0.31", "ENBN"], "icaoCodes": ["ENBN"], "wigosId": "0-20000-0-01112"}, {"@type": "SensorSystem", "id": "SN9310", "name": "HJERKINN II", "shortName": "Hjerkinn", "country": "Norge", "countryCode": "NO", "wmoId": 1239, "geometry": {"@type": "Point", "coordinates": [9.5423, 62.2207], "nearest": false}, "masl": 1012, "validFrom": "2010-09-06T00:00:00.000Z", "county": "INNLANDET", "countyId": 34, "municipality": "DOVRE", "municipalityId": 3431, "stationHolders": ["BANE NOR"], "externalIds": ["01239", "10.249.0.74"], "wigosId": "0-20000-0-01239"}, {"@type": "SensorSystem", "id": "SN78800", "name": "VARNTRESK", "shortName": "Varntresk", "country": "Norge", "countryCode": "NO", "wmoId": 1147, "geometry": {"@type": "Point", "coordinates": [14.1942, 65.8255], "nearest": false}, "masl": 406, "validFrom": "1999-09-24T00:00:00.000Z", "county": "NORDLAND", "countyId": 18, "municipality": "HATTFJELLDAL", "municipalityId": 1826, "stationHolders": ["MET.NO"], "externalIds": ["01147", "10.249.0.206"], "wigosId": "0-20000-0-01147"}, {"@type": "SensorSystem", "id": "SN46510", "name": "E134 MIDTL\u00c6GER", "shortName": "Midtl\u00e6ger", "country": "Norge", "countryCode": "NO", "geometry": {"@type": "Point", "coordinates": [6.9825, 59.8402], "nearest": false}, "masl": 1079, "validFrom": "1967-02-01T00:00:00.000Z", "county": "VESTLAND", "countyId": 46, "municipality": "ULLENSVANG", "municipalityId": 4618, "stationHolders": ["STATENS VEGVESEN"], "externalIds": ["01433", "1229047", "1701"]}, {"@type": "SensorSystem", "id": "SN18500", "name": "BJ\u00d8RNHOLT", "shortName": "Bj\u00f8rnholt", "country": "Norge", "countryCode": "NO", "wmoId": 1489, "geometry": {"@type": "Point", "coordinates": [10.6878, 60.0513], "nearest": false}, "masl": 360, "validFrom": "1876-01-01T00:00:00.000Z", "county": "OSLO", "countyId": 3, "municipality": "OSLO", "municipalityId": 301, "stationHolders": ["MET.NO"], "externalIds": ["01489", "10.249.0.46", "10.249.1.131", "10.249.1.45", "1489"], "wigosId": "0-20000-0-01489"}, {"@type": "SensorSystem", "id": "SN31620", "name": "M\u00d8SSTRAND II", "shortName": "M\u00f8sstrand", "country": "Norge", "countryCode": "NO", "wmoId": 1450, "geometry": {"@type": "Point", "coordinates": [8.1785, 59.8397], "nearest": false}, "masl": 977, "validFrom": "1980-11-01T00:00:00.000Z", "county": "VESTFOLD OG TELEMARK", "countyId": 38, "municipality": "VINJE", "municipalityId": 3825, "stationHolders": ["MET.NO"], "externalIds": ["01450"], "wigosId": "0-20000-0-01450"}, {"@type": "SensorSystem", "id": "SN57710", "name": "FLOR\u00d8 LUFTHAMN", "shortName": "Flor\u00f8 LH", "country": "Norge", "countryCode": "NO", "wmoId": 1310, "geometry": {"@type": "Point", "coordinates": [5.0278, 61.5832], "nearest": false}, "masl": 9, "validFrom": "1971-06-01T00:00:00.000Z", "county": "VESTLAND", "countyId": 46, "municipality": "KINN", "municipalityId": 4602, "stationHolders": ["AVINOR"], "externalIds": ["01310", "10.249.1.174", "ENFL"], "icaoCodes": ["ENFL"], "wigosId": "0-20000-0-01310"}, {"@type": "SensorSystem", "id": "SN27780", "name": "TJ\u00d8LLING", "shortName": "Tj\u00f8lling", "country": "Norge", "countryCode": "NO", "geometry": {"@type": "Point", "coordinates": [10.125, 59.0467], "nearest": false}, "masl": 19, "validFrom": "2005-01-01T00:00:00.000Z", "county": "VESTFOLD OG TELEMARK", "countyId": 38, "municipality": "LARVIK", "municipalityId": 3805, "stationHolders": ["NIBIO"], "externalIds": ["1"], "wigosId": "0-578-0-27780"}, {"@type": "SensorSystem", "id": "SN99752", "name": "S\u00d8RKAPP\u00d8YA", "shortName": "S\u00f8rkapp\u00f8ya", "country": "Svalbard og Jan Mayen", "countryCode": "SJ", "wmoId": 1020, "geometry": {"@type": "Point", "coordinates": [16.5488, 76.4777], "nearest": false}, "masl": 10, "validFrom": "1908-09-01T00:00:00.000Z", "county": "SVALBARD", "countyId": 21, "municipality": "SVALBARD", "municipalityId": 2100, "stationHolders": ["MET.NO"], "externalIds": ["01020", "300134010618090", "300234011933560"], "wigosId": "0-20000-0-01020"}, {"@type": "SensorSystem", "id": "SN53101", "name": "VANGSNES", "shortName": "Vangsnes", "country": "Norge", "countryCode": "NO", "wmoId": 1338, "geometry": {"@type": "Point", "coordinates": [6.6452, 61.1724], "nearest": false}, "masl": 49, "validFrom": "1993-12-17T00:00:00.000Z", "county": "VESTLAND", "countyId": 46, "municipality": "VIK", "municipalityId": 4639, "stationHolders": ["MET.NO"], "externalIds": ["01338"], "wigosId": "0-20000-0-01338"}, {"@type": "SensorSystem", "id": "SN99710", "name": "BJ\u00d8RN\u00d8YA", "shortName": "Bj\u00f8rn\u00f8ya", "country": "Svalbard og Jan Mayen", "countryCode": "SJ", "wmoId": 1028, "geometry": {"@type": "Point", "coordinates": [19.005, 74.5167], "nearest": false}, "masl": 16, "validFrom": "1910-01-01T00:00:00.000Z", "county": "SVALBARD", "countyId": 21, "municipality": "SVALBARD", "municipalityId": 2100, "stationHolders": ["MET.NO"], "externalIds": ["01028", "ENBJ", "LBJ"], "icaoCodes": ["ENBJ"], "shipCodes": ["LBJ"], "wigosId": "0-20000-0-01028"}, {"@type": "SensorSystem", "id": "SN87110", "name": "AND\u00d8YA", "shortName": "And\u00f8ya LH", "country": "Norge", "countryCode": "NO", "wmoId": 1010, "geometry": {"@type": "Point", "coordinates": [16.1312, 69.3073], "nearest": false}, "masl": 10, "validFrom": "1958-01-01T00:00:00.000Z", "county": "NORDLAND", "countyId": 18, "municipality": "AND\u00d8Y", "municipalityId": 1871, "stationHolders": ["AVINOR", "MET.NO"], "externalIds": ["01010", "10.249.0.55", "10.249.1.89", "ENAN"], "icaoCodes": ["ENAN"], "wigosId": "0-20000-0-01010"}, {"@type": "SensorSystem", "id": "SN12680", "name": "LILLEHAMMER - S\u00c6THERENGEN", "shortName": "Lillehammer", "country": "Norge", "countryCode": "NO", "wmoId": 1378, "geometry": {"@type": "Point", "coordinates": [10.4762, 61.0917], "nearest": false}, "masl": 240, "validFrom": "1982-12-01T00:00:00.000Z", "county": "INNLANDET", "countyId": 34, "municipality": "LILLEHAMMER", "municipalityId": 3405, "stationHolders": ["MET.NO"], "externalIds": ["01378", "10.249.1.155"], "wigosId": "0-20000-0-01378"}, {"@type": "SensorSystem", "id": "SN29400", "name": "SANDHAUG", "shortName": "Sandhaug", "country": "Norge", "countryCode": "NO", "wmoId": 1352, "geometry": {"@type": "Point", "coordinates": [7.4805, 60.1833], "nearest": false}, "masl": 1250, "validFrom": "2008-10-04T00:00:00.000Z", "county": "VESTLAND", "countyId": 46, "municipality": "EIDFJORD", "municipalityId": 4619, "stationHolders": ["MET.NO"], "externalIds": ["01352", "10.249.0.107"], "wigosId": "0-20000-0-01352"}, {"@type": "SensorSystem", "id": "SN28380", "name": "KONGSBERG BRANNSTASJON", "shortName": "Kongsberg", "country": "Norge", "countryCode": "NO", "wmoId": 1473, "geometry": {"@type": "Point", "coordinates": [9.6377, 59.6247], "nearest": false}, "masl": 170, "validFrom": "2003-02-17T00:00:00.000Z", "county": "VIKEN", "countyId": 30, "municipality": "KONGSBERG", "municipalityId": 3006, "stationHolders": ["MET.NO"], "externalIds": ["01473", "10.30.214.2"], "wigosId": "0-20000-0-01473"}, {"@type": "SensorSystem", "id": "SN91380", "name": "SKIBOTN II", "shortName": "Skibotn", "country": "Norge", "countryCode": "NO", "wmoId": 1037, "geometry": {"@type": "Point", "coordinates": [20.2823, 69.3875], "nearest": false}, "masl": 20, "validFrom": "2004-11-01T00:00:00.000Z", "county": "TROMS OG FINNMARK", "countyId": 54, "municipality": "STORFJORD", "municipalityId": 5425, "stationHolders": ["MET.NO"], "externalIds": ["01037"], "wigosId": "0-20000-0-01037"}, {"@type": "SensorSystem", "id": "SN90800", "name": "TORSV\u00c5G FYR", "shortName": "Torsv\u00e5g fyr", "country": "Norge", "countryCode": "NO", "wmoId": 1033, "geometry": {"@type": "Point", "coordinates": [19.4997, 70.2452], "nearest": false}, "masl": 21, "validFrom": "1933-09-11T00:00:00.000Z", "county": "TROMS OG FINNMARK", "countyId": 54, "municipality": "KARLS\u00d8Y", "municipalityId": 5423, "stationHolders": ["MET.NO"], "externalIds": ["01033", "10.249.1.135"], "wigosId": "0-20000-0-01033"}, {"@type": "SensorSystem", "id": "SN46930", "name": "VATS I VINDAFJORD", "shortName": "Vats (Vindafj)", "country": "Norge", "countryCode": "NO", "wmoId": 1417, "geometry": {"@type": "Point", "coordinates": [5.7208, 59.4927], "nearest": false}, "masl": 20, "validFrom": "2011-10-21T00:00:00.000Z", "county": "ROGALAND", "countyId": 11, "municipality": "VINDAFJORD", "municipalityId": 1160, "stationHolders": ["MET.NO"], "externalIds": ["01417", "10.249.0.188"], "wigosId": "0-20000-0-01417"}, {"@type": "SensorSystem", "id": "SN12550", "name": "KISE PA HEDMARK", "shortName": "Kise p\u00e5 Hedmark", "country": "Norge", "countryCode": "NO", "wmoId": 1382, "geometry": {"@type": "Point", "coordinates": [10.8055, 60.7733], "nearest": false}, "masl": 128, "validFrom": "1951-04-01T00:00:00.000Z", "county": "INNLANDET", "countyId": 34, "municipality": "RINGSAKER", "municipalityId": 3411, "stationHolders": ["NIBIO"], "externalIds": ["01382", "1382", "21"], "wigosId": "0-20000-0-01382"}, {"@type": "SensorSystem", "id": "SN31660", "name": "MOGEN", "shortName": "Mogen", "country": "Norge", "countryCode": "NO", "geometry": {"@type": "Point", "coordinates": [7.913, 60.018], "nearest": false}, "masl": 954, "validFrom": "1930-09-01T00:00:00.000Z", "county": "VESTFOLD OG TELEMARK", "countyId": 38, "municipality": "VINJE", "municipalityId": 3825, "stationHolders": ["HYDRO ENERGY AS"], "wigosId": "0-578-0-31660"}, {"@type": "SensorSystem", "id": "SN12290", "name": "HAMAR II", "shortName": "Hamar (Disen)", "country": "Norge", "countryCode": "NO", "wmoId": 1386, "geometry": {"@type": "Point", "coordinates": [11.095, 60.8002], "nearest": false}, "masl": 141, "validFrom": "1968-05-20T00:00:00.000Z", "county": "INNLANDET", "countyId": 34, "municipality": "HAMAR", "municipalityId": 3403, "stationHolders": ["MET.NO"], "externalIds": ["01386", "10.249.0.103"], "wigosId": "0-20000-0-01386"}, {"@type": "SensorSystem", "id": "SN82650", "name": "VALLJORD", "shortName": "Valljord", "country": "Norge", "countryCode": "NO", "geometry": {"@type": "Point", "coordinates": [15.5892, 67.3605], "nearest": false}, "masl": 3, "validFrom": "1971-10-01T00:00:00.000Z", "county": "NORDLAND", "countyId": 18, "municipality": "S\u00d8RFOLD", "municipalityId": 1845, "stationHolders": ["SISO ENERGI AS"], "wigosId": "0-578-0-82650"}, {"@type": "SensorSystem", "id": "SN80102", "name": "SOLV\u00c6R III", "shortName": "Solv\u00e6r", "country": "Norge", "countryCode": "NO", "wmoId": 1121, "geometry": {"@type": "Point", "coordinates": [12.611, 66.3705], "nearest": false}, "masl": 10, "validFrom": "2007-11-01T00:00:00.000Z", "county": "NORDLAND", "countyId": 18, "municipality": "LUR\u00d8Y", "municipalityId": 1834, "stationHolders": ["MET.NO"], "externalIds": ["01121", "10.249.0.164"], "wigosId": "0-20000-0-01121"}, {"@type": "SensorSystem", "id": "SN4200", "name": "KJELLER", "shortName": "Kjeller", "country": "Norge", "countryCode": "NO", "wmoId": 1466, "geometry": {"@type": "Point", "coordinates": [11.0383, 59.9708], "nearest": false}, "masl": 108, "validFrom": "1923-03-22T00:00:00.000Z", "county": "VIKEN", "countyId": 30, "municipality": "LILLESTR\u00d8M", "municipalityId": 3030, "stationHolders": ["KJELLER FLYSTASJON", "MET.NO"], "externalIds": ["01466", "10.249.0.126", "1466", "ENKJ"], "icaoCodes": ["ENKJ"], "wigosId": "0-20000-0-01466"}, {"@type": "SensorSystem", "id": "SN4780", "name": "GARDERMOEN", "shortName": "Gardermoen", "country": "Norge", "countryCode": "NO", "wmoId": 1384, "geometry": {"@type": "Point", "coordinates": [11.0802, 60.2065], "nearest": false}, "masl": 202, "validFrom": "1940-05-13T00:00:00.000Z", "county": "VIKEN", "countyId": 30, "municipality": "ULLENSAKER", "municipalityId": 3033, "stationHolders": ["AVINOR"], "externalIds": ["01384", "ENGM"], "icaoCodes": ["ENGM"], "wigosId": "0-20000-0-01384"}, {"@type": "SensorSystem", "id": "SN93000", "name": "HASVIK - SLUSKFJELLET", "shortName": "Hasvik", "country": "Norge", "countryCode": "NO", "wmoId": 1042, "geometry": {"@type": "Point", "coordinates": [22.4428, 70.607], "nearest": false}, "masl": 438, "validFrom": "2008-07-03T00:00:00.000Z", "county": "TROMS OG FINNMARK", "countyId": 54, "municipality": "HASVIK", "municipalityId": 5433, "stationHolders": ["MET.NO"], "externalIds": ["01042", "157.249.136.50"], "wigosId": "0-20000-0-01042"}, {"@type": "SensorSystem", "id": "SN99460", "name": "PASVIK - SVANVIK", "shortName": "Svanvik", "country": "Norge", "countryCode": "NO", "wmoId": 1084, "geometry": {"@type": "Point", "coordinates": [30.041, 69.4552], "nearest": false}, "masl": 27, "validFrom": "1973-01-01T00:00:00.000Z", "county": "TROMS OG FINNMARK", "countyId": 54, "municipality": "S\u00d8R-VARANGER", "municipalityId": 5444, "stationHolders": ["NIBIO", "MET.NO"], "externalIds": ["01084", "32"], "wigosId": "0-20000-0-01084"}, {"@type": "SensorSystem", "id": "SN99765", "name": "AKSEL\u00d8YA", "shortName": "Aksel\u00f8ya", "country": "Svalbard og Jan Mayen", "countryCode": "SJ", "wmoId": 1017, "geometry": {"@type": "Point", "coordinates": [14.7632, 77.6902], "nearest": false}, "masl": 20, "validFrom": "1898-09-01T00:00:00.000Z", "county": "SVALBARD", "countyId": 21, "municipality": "SVALBARD", "municipalityId": 2100, "stationHolders": ["MET.NO"], "externalIds": ["01017", "300134010702680"]}, {"@type": "SensorSystem", "id": "SN180", "name": "TRYSIL VEGSTASJON", "shortName": "Trysil Mosanden", "country": "Norge", "countryCode": "NO", "wmoId": 1397, "geometry": {"@type": "Point", "coordinates": [12.2718, 61.2943], "nearest": false}, "masl": 360, "validFrom": "1993-11-10T00:00:00.000Z", "county": "INNLANDET", "countyId": 34, "municipality": "TRYSIL", "municipalityId": 3421, "stationHolders": ["MET.NO"], "externalIds": ["01397", "10.249.1.118"], "wigosId": "0-20000-0-01397"}, {"@type": "SensorSystem", "id": "SN76450", "name": "VEGA - VALLSJ\u00d8", "shortName": "Vega", "country": "Norge", "countryCode": "NO", "wmoId": 1108, "geometry": {"@type": "Point", "coordinates": [11.8562, 65.7017], "nearest": false}, "masl": 4, "validFrom": "1991-02-01T00:00:00.000Z", "county": "NORDLAND", "countyId": 18, "municipality": "VEGA", "municipalityId": 1815, "stationHolders": ["MET.NO"], "externalIds": ["01108", "10.249.0.198"], "wigosId": "0-20000-0-01108"}, {"@type": "SensorSystem", "id": "SN32060", "name": "GVARV - NES", "shortName": "Gvarv", "country": "Norge", "countryCode": "NO", "wmoId": 1470, "geometry": {"@type": "Point", "coordinates": [9.2128, 59.3822], "nearest": false}, "masl": 93, "validFrom": "1997-05-13T00:00:00.000Z", "county": "VESTFOLD OG TELEMARK", "countyId": 38, "municipality": "MIDT-TELEMARK", "municipalityId": 3817, "stationHolders": ["MET.NO"], "externalIds": ["01470", "10.249.0.133", "10.30.214.1"], "wigosId": "0-20000-0-01470"}, {"@type": "SensorSystem", "id": "SN17050", "name": "R\u00c5DE - TOMB", "shortName": "Tomb", "country": "Norge", "countryCode": "NO", "geometry": {"@type": "Point", "coordinates": [10.8145, 59.3188], "nearest": false}, "masl": 12, "validFrom": "1942-03-01T00:00:00.000Z", "county": "VIKEN", "countyId": 30, "municipality": "R\u00c5DE", "municipalityId": 3017, "stationHolders": ["NIBIO"], "externalIds": ["13"], "wigosId": "0-578-0-17050"}, {"@type": "SensorSystem", "id": "SN3290", "name": "RAKKESTAD", "shortName": "Rakkestad", "country": "Norge", "countryCode": "NO", "geometry": {"@type": "Point", "coordinates": [11.3905, 59.3882], "nearest": false}, "masl": 100, "validFrom": "1991-01-01T00:00:00.000Z", "county": "VIKEN", "countyId": 30, "municipality": "RAKKESTAD", "municipalityId": 3016, "stationHolders": ["NIBIO"], "externalIds": ["1500", "9"], "wigosId": "0-578-0-3290"}, {"@type": "SensorSystem", "id": "SN82000", "name": "SETS\u00c5", "shortName": "Sets\u00e5", "country": "Norge", "countryCode": "NO", "wmoId": 1158, "geometry": {"@type": "Point", "coordinates": [15.4857, 67.1658], "nearest": false}, "masl": 7, "validFrom": "2009-02-04T00:00:00.000Z", "county": "NORDLAND", "countyId": 18, "municipality": "SALTDAL", "municipalityId": 1840, "stationHolders": ["BANE NOR"], "externalIds": ["01158", "10.249.0.86"], "wigosId": "0-20000-0-01158"}, {"@type": "SensorSystem", "id": "SN96310", "name": "MEHAMN LUFTHAVN", "shortName": "Mehamn LH", "country": "Norge", "countryCode": "NO", "wmoId": 1074, "geometry": {"@type": "Point", "coordinates": [27.8298, 71.033], "nearest": false}, "masl": 13, "validFrom": "1974-08-01T00:00:00.000Z", "county": "TROMS OG FINNMARK", "countyId": 54, "municipality": "GAMVIK", "municipalityId": 5439, "stationHolders": ["MET.NO", "AVINOR"], "externalIds": ["01074", "10.249.0.52", "ENMH"], "icaoCodes": ["ENMH"], "wigosId": "0-20000-0-01074"}, {"@type": "SensorSystem", "id": "SN86740", "name": "B\u00d8 I VESTER\u00c5LEN III", "shortName": "B\u00f8 Vester\u00e5len", "country": "Norge", "countryCode": "NO", "wmoId": 1156, "geometry": {"@type": "Point", "coordinates": [14.4347, 68.6072], "nearest": false}, "masl": 8, "validFrom": "2002-12-03T00:00:00.000Z", "county": "NORDLAND", "countyId": 18, "municipality": "B\u00d8", "municipalityId": 1867, "stationHolders": ["MET.NO"], "externalIds": ["01156"], "wigosId": "0-20000-0-01156"}, {"@type": "SensorSystem", "id": "SN57770", "name": "YTTER\u00d8YANE FYR", "shortName": "Ytter\u00f8yane fyr", "country": "Norge", "countryCode": "NO", "wmoId": 1304, "geometry": {"@type": "Point", "coordinates": [4.6817, 61.5717], "nearest": false}, "masl": 26, "validFrom": "1984-09-01T00:00:00.000Z", "county": "VESTLAND", "countyId": 46, "municipality": "KINN", "municipalityId": 4602, "stationHolders": ["MET.NO"], "externalIds": ["01304", "10.249.1.34"], "wigosId": "0-20000-0-01304"}, {"@type": "SensorSystem", "id": "SN94680", "name": "HONNINGSV\u00c5G LUFTHAVN", "shortName": "Honningsv\u00e5g", "country": "Norge", "countryCode": "NO", "wmoId": 1068, "geometry": {"@type": "Point", "coordinates": [25.9782, 71.0105], "nearest": false}, "masl": 14, "validFrom": "1977-07-01T00:00:00.000Z", "county": "TROMS OG FINNMARK", "countyId": 54, "municipality": "NORDKAPP", "municipalityId": 5435, "stationHolders": ["MET.NO", "AVINOR"], "externalIds": ["01068", "10.249.0.27", "ENHV"], "icaoCodes": ["ENHV"], "wigosId": "0-20000-0-01068"}, {"@type": "SensorSystem", "id": "SN38600", "name": "MYKLAND", "shortName": "Mykland", "country": "Norge", "countryCode": "NO", "geometry": {"@type": "Point", "coordinates": [8.2888, 58.633], "nearest": false}, "masl": 245, "validFrom": "1895-07-01T00:00:00.000Z", "county": "AGDER", "countyId": 42, "municipality": "FROLAND", "municipalityId": 4214, "stationHolders": ["MET.NO"], "wigosId": "0-578-0-38600"}, {"@type": "SensorSystem", "id": "SN44560", "name": "SOLA", "shortName": "Sola", "country": "Norge", "countryCode": "NO", "wmoId": 1415, "geometry": {"@type": "Point", "coordinates": [5.637, 58.8843], "nearest": false}, "masl": 7, "validFrom": "1935-05-21T00:00:00.000Z", "county": "ROGALAND", "countyId": 11, "municipality": "SOLA", "municipalityId": 1124, "stationHolders": ["AVINOR", "MET.NO"], "externalIds": ["01415", "10.249.0.173", "10.249.0.64", "ENZV"], "icaoCodes": ["ENZV"], "wigosId": "0-20000-0-01415"}, {"@type": "SensorSystem", "id": "SN90400", "name": "TROMS\u00d8 - HOLT", "shortName": "Troms\u00f8 (Holt)", "country": "Norge", "countryCode": "NO", "wmoId": 1027, "geometry": {"@type": "Point", "coordinates": [18.9095, 69.6538], "nearest": false}, "masl": 20, "validFrom": "1987-05-04T00:00:00.000Z", "county": "TROMS OG FINNMARK", "countyId": 54, "municipality": "TROMS\u00d8", "municipalityId": 5401, "stationHolders": ["NIBIO"], "externalIds": ["01027", "1027", "30"], "wigosId": "0-20000-0-01027"}, {"@type": "SensorSystem", "id": "SN71550", "name": "\u00d8RLAND III", "shortName": "\u00d8rland", "country": "Norge", "countryCode": "NO", "wmoId": 1241, "geometry": {"@type": "Point", "coordinates": [9.6105, 63.7045], "nearest": false}, "masl": 10, "validFrom": "1954-07-01T00:00:00.000Z", "county": "TR\u00d8NDELAG", "countyId": 50, "municipality": "\u00d8RLAND", "municipalityId": 5057, "stationHolders": ["MET.NO"], "externalIds": ["01241", "10.249.0.56", "ENOL"], "icaoCodes": ["ENOL"], "wigosId": "0-20000-0-01241"}, {"@type": "SensorSystem", "id": "SN36560", "name": "NELAUG", "shortName": "Nelaug", "country": "Norge", "countryCode": "NO", "wmoId": 1459, "geometry": {"@type": "Point", "coordinates": [8.63, 58.6582], "nearest": false}, "masl": 142, "validFrom": "1966-07-01T00:00:00.000Z", "county": "AGDER", "countyId": 42, "municipality": "\u00c5MLI", "municipalityId": 4217, "stationHolders": ["MET.NO"], "externalIds": ["01459"], "wigosId": "0-20000-0-01459"}, {"@type": "SensorSystem", "id": "SN78360", "name": "SELJELIA", "shortName": "Seljelia", "country": "Norge", "countryCode": "NO", "wmoId": 1135, "geometry": {"@type": "Point", "coordinates": [13.5867, 66.1317], "nearest": false}, "masl": 126, "validFrom": "2011-10-14T00:00:00.000Z", "county": "NORDLAND", "countyId": 18, "municipality": "VEFSN", "municipalityId": 1824, "stationHolders": ["BANE NOR"], "externalIds": ["01135", "10.249.0.80"], "wigosId": "0-20000-0-01135"}, {"@type": "SensorSystem", "id": "SN13655", "name": "SK\u00c5BU", "shortName": "Sk\u00e5bu ", "country": "Norge", "countryCode": "NO", "wmoId": 1370, "geometry": {"@type": "Point", "coordinates": [9.4023, 61.5308], "nearest": false}, "masl": 928, "validFrom": "2011-06-08T00:00:00.000Z", "county": "INNLANDET", "countyId": 34, "municipality": "NORD-FRON", "municipalityId": 3436, "stationHolders": ["MET.NO"], "externalIds": ["01370", "10.249.0.168"], "wigosId": "0-20000-0-01370"}, {"@type": "SensorSystem", "id": "SN18700", "name": "OSLO - BLINDERN", "shortName": "Oslo (Blindern)", "country": "Norge", "countryCode": "NO", "wmoId": 1492, "geometry": {"@type": "Point", "coordinates": [10.72, 59.9423], "nearest": false}, "masl": 94, "validFrom": "1931-01-01T00:00:00.000Z", "county": "OSLO", "countyId": 3, "municipality": "OSLO", "municipalityId": 301, "stationHolders": ["MET.NO"], "externalIds": ["01492", "10.249.0.189", "157.249.0.180:6785"], "wigosId": "0-20000-0-01492"}, {"@type": "SensorSystem", "id": "SN26900", "name": "DRAMMEN - BERSKOG", "shortName": "Berskog", "country": "Norge", "countryCode": "NO", "wmoId": 1480, "geometry": {"@type": "Point", "coordinates": [10.1237, 59.7537], "nearest": false}, "masl": 8, "validFrom": "2004-09-20T00:00:00.000Z", "county": "VIKEN", "countyId": 30, "municipality": "DRAMMEN", "municipalityId": 3005, "stationHolders": ["MET.NO"], "externalIds": ["01480", "10.249.0.215"], "wigosId": "0-20000-0-01480"}, {"@type": "SensorSystem", "id": "SN27160", "name": "HORTEN II", "shortName": "Horten", "country": "Norge", "countryCode": "NO", "geometry": {"@type": "Point", "coordinates": [10.4647, 59.4198], "nearest": false}, "masl": 95, "validFrom": "2015-04-22T00:00:00.000Z", "county": "VESTFOLD OG TELEMARK", "countyId": 38, "municipality": "HORTEN", "municipalityId": 3801, "stationHolders": ["HORTEN KOMMUNE"], "wigosId": "0-578-0-27160"}, {"@type": "SensorSystem", "id": "SN72710", "name": "OVERHALLA - SKOGMO", "shortName": "Skogmo", "country": "Norge", "countryCode": "NO", "geometry": {"@type": "Point", "coordinates": [12.0197, 64.5103], "nearest": false}, "masl": 32, "validFrom": "1991-01-02T00:00:00.000Z", "county": "TR\u00d8NDELAG", "countyId": 50, "municipality": "OVERHALLA", "municipalityId": 5047, "stationHolders": ["NIBIO"], "externalIds": ["6"], "wigosId": "0-578-0-72710"}, {"@type": "SensorSystem", "id": "SN68290", "name": "SELBU II", "shortName": "Selbu", "country": "Norge", "countryCode": "NO", "wmoId": 1273, "geometry": {"@type": "Point", "coordinates": [11.0075, 63.2248], "nearest": false}, "masl": 160, "validFrom": "2007-09-26T00:00:00.000Z", "county": "TR\u00d8NDELAG", "countyId": 50, "municipality": "SELBU", "municipalityId": 5032, "stationHolders": ["MET.NO"], "externalIds": ["01273"], "wigosId": "0-20000-0-01273"}, {"@type": "SensorSystem", "id": "SN90495", "name": "STAKKEVOLLAN", "shortName": "Stakkevollan ", "country": "Norge", "countryCode": "NO", "geometry": {"@type": "Point", "coordinates": [18.982, 69.6942], "nearest": false}, "masl": 80, "validFrom": "2011-10-20T00:00:00.000Z", "county": "TROMS OG FINNMARK", "countyId": 54, "municipality": "TROMS\u00d8", "municipalityId": 5401, "stationHolders": ["TROMS\u00d8 KOMMUNE"], "externalIds": ["1513"], "wigosId": "0-578-0-90495"}, {"@type": "SensorSystem", "id": "SN99790", "name": "ISFJORD RADIO", "shortName": "Isfjord radio", "country": "Svalbard og Jan Mayen", "countryCode": "SJ", "wmoId": 1013, "geometry": {"@type": "Point", "coordinates": [13.6192, 78.0625], "nearest": false}, "masl": 7, "validFrom": "1934-09-03T00:00:00.000Z", "county": "SVALBARD", "countyId": 21, "municipality": "SVALBARD", "municipalityId": 2100, "stationHolders": ["MET.NO"], "externalIds": ["01005", "01013", "10.249.0.5", "LML"], "shipCodes": ["LML"], "wigosId": "0-744-0-99790"}, {"@type": "SensorSystem", "id": "SN97350", "name": "CUOVDDATMOHKKI", "shortName": "\u010coavddatmohkki", "country": "Norge", "countryCode": "NO", "wmoId": 1057, "geometry": {"@type": "Point", "coordinates": [24.4312, 69.3695], "nearest": false}, "masl": 286, "validFrom": "1955-01-01T00:00:00.000Z", "county": "TROMS OG FINNMARK", "countyId": 54, "municipality": "KARASJOK", "municipalityId": 5437, "stationHolders": ["MET.NO"], "externalIds": ["01057"], "wigosId": "0-20000-0-01057"}, {"@type": "SensorSystem", "id": "SN69100", "name": "V\u00c6RNES", "shortName": "V\u00e6rnes", "country": "Norge", "countryCode": "NO", "wmoId": 1271, "geometry": {"@type": "Point", "coordinates": [10.9305, 63.4597], "nearest": false}, "masl": 12, "validFrom": "1940-04-17T00:00:00.000Z", "county": "TR\u00d8NDELAG", "countyId": 50, "municipality": "STJ\u00d8RDAL", "municipalityId": 5035, "stationHolders": ["MET.NO", "AVINOR"], "externalIds": ["01271", "10.249.0.13", "10.249.1.47", "ENVA"], "icaoCodes": ["ENVA"], "wigosId": "0-20000-0-01271"}, {"@type": "SensorSystem", "id": "SN86520", "name": "SORTLAND - KLEIVA", "shortName": "Sortland (Biof.)", "country": "Norge", "countryCode": "NO", "geometry": {"@type": "Point", "coordinates": [15.2832, 68.648], "nearest": false}, "masl": 14, "validFrom": "1956-01-01T00:00:00.000Z", "county": "NORDLAND", "countyId": 18, "municipality": "SORTLAND", "municipalityId": 1870, "stationHolders": ["NIBIO"], "externalIds": ["31"], "wigosId": "0-578-0-86520"}, {"@type": "SensorSystem", "id": "SN13160", "name": "KVITFJELL", "shortName": "Kvitfjell", "country": "Norge", "countryCode": "NO", "wmoId": 1375, "geometry": {"@type": "Point", "coordinates": [10.1277, 61.4648], "nearest": false}, "masl": 1030, "validFrom": "1992-09-16T00:00:00.000Z", "county": "INNLANDET", "countyId": 34, "municipality": "RINGEBU", "municipalityId": 3439, "stationHolders": ["MET.NO"], "externalIds": ["01375", "10.249.0.112"], "wigosId": "0-20000-0-01375"}, {"@type": "SensorSystem", "id": "SN17000", "name": "STR\u00d8MTANGEN FYR", "shortName": "Str\u00f8mtangen", "country": "Norge", "countryCode": "NO", "wmoId": 1495, "geometry": {"@type": "Point", "coordinates": [10.8288, 59.1513], "nearest": false}, "masl": 10, "validFrom": "1994-05-09T00:00:00.000Z", "county": "VIKEN", "countyId": 30, "municipality": "FREDRIKSTAD", "municipalityId": 3004, "stationHolders": ["MET.NO"], "externalIds": ["01495", "10.249.0.110"], "wigosId": "0-20000-0-01495"}, {"@type": "SensorSystem", "id": "SN24710", "name": "GULSVIK II", "shortName": "Gulsvik", "country": "Norge", "countryCode": "NO", "wmoId": 1376, "geometry": {"@type": "Point", "coordinates": [9.605, 60.383], "nearest": false}, "masl": 142, "validFrom": "1922-12-01T00:00:00.000Z", "county": "VIKEN", "countyId": 30, "municipality": "FL\u00c5", "municipalityId": 3039, "stationHolders": ["BANE NOR"], "externalIds": ["01376", "10.249.0.87"], "wigosId": "0-20000-0-01376"}, {"@type": "SensorSystem", "id": "SN99840", "name": "SVALBARD LUFTHAVN", "shortName": "Svalbard LH", "country": "Svalbard og Jan Mayen", "countryCode": "SJ", "wmoId": 1008, "geometry": {"@type": "Point", "coordinates": [15.5015, 78.2453], "nearest": false}, "masl": 28, "validFrom": "1964-10-16T00:00:00.000Z", "county": "SVALBARD", "countyId": 21, "municipality": "SVALBARD", "municipalityId": 2100, "stationHolders": ["MET.NO", "AVINOR"], "externalIds": ["01008", "10.249.0.179", "10.249.0.28", "10.249.0.67", "ENSB"], "icaoCodes": ["ENSB"], "wigosId": "0-20000-0-01008"}, {"@type": "SensorSystem", "id": "SN94280", "name": "HAMMERFEST LUFTHAVN", "shortName": "Hammerfest", "country": "Norge", "countryCode": "NO", "wmoId": 1052, "geometry": {"@type": "Point", "coordinates": [23.6772, 70.6807], "nearest": false}, "masl": 81, "validFrom": "1974-08-01T00:00:00.000Z", "county": "TROMS OG FINNMARK", "countyId": 54, "municipality": "HAMMERFEST", "municipalityId": 5406, "stationHolders": ["MET.NO", "AVINOR"], "externalIds": ["01052", "10.249.0.53", "ENHF"], "icaoCodes": ["ENHF"], "wigosId": "0-20000-0-01052"}, {"@type": "SensorSystem", "id": "SN52860", "name": "TAKLE", "shortName": "Takle", "country": "Norge", "countryCode": "NO", "wmoId": 1319, "geometry": {"@type": "Point", "coordinates": [5.3813, 61.0272], "nearest": false}, "masl": 38, "validFrom": "1950-06-01T00:00:00.000Z", "county": "VESTLAND", "countyId": 46, "municipality": "GULEN", "municipalityId": 4635, "stationHolders": ["MET.NO"], "externalIds": ["01319", "10.249.0.89"], "wigosId": "0-20000-0-01319"}, {"@type": "SensorSystem", "id": "SN45530", "name": "LIARVATN", "shortName": "Liarvatn", "country": "Norge", "countryCode": "NO", "wmoId": 1419, "geometry": {"@type": "Point", "coordinates": [6.1212, 59.0512], "nearest": false}, "masl": 300, "validFrom": "2010-07-01T00:00:00.000Z", "county": "ROGALAND", "countyId": 11, "municipality": "STRAND", "municipalityId": 1130, "stationHolders": ["LYSE PRODUKSJON AS"], "externalIds": ["01419", "10.249.0.144"], "wigosId": "0-20000-0-01419"}, {"@type": "SensorSystem", "id": "SN82410", "name": "HELLIGV\u00c6R II", "shortName": "Helligv\u00e6r", "country": "Norge", "countryCode": "NO", "wmoId": 1144, "geometry": {"@type": "Point", "coordinates": [13.8958, 67.4048], "nearest": false}, "masl": 24, "validFrom": "2005-01-27T00:00:00.000Z", "county": "NORDLAND", "countyId": 18, "municipality": "BOD\u00d8", "municipalityId": 1804, "stationHolders": ["MET.NO"], "externalIds": ["01144", "10.249.1.152"], "wigosId": "0-20000-0-01144"}, {"@type": "SensorSystem", "id": "SN23420", "name": "FAGERNES", "shortName": "Fagernes", "country": "Norge", "countryCode": "NO", "wmoId": 1367, "geometry": {"@type": "Point", "coordinates": [9.224, 60.9785], "nearest": false}, "masl": 358, "validFrom": "1892-10-01T00:00:00.000Z", "county": "INNLANDET", "countyId": 34, "municipality": "NORD-AURDAL", "municipalityId": 3451, "stationHolders": ["MET.NO"], "externalIds": ["01367", "10.249.1.115"], "wigosId": "0-20000-0-01367"}, {"@type": "SensorSystem", "id": "SN39040", "name": "KJEVIK", "shortName": "Kjevik", "country": "Norge", "countryCode": "NO", "wmoId": 1452, "geometry": {"@type": "Point", "coordinates": [8.0767, 58.2], "nearest": false}, "masl": 12, "validFrom": "1939-06-01T00:00:00.000Z", "county": "AGDER", "countyId": 42, "municipality": "KRISTIANSAND", "municipalityId": 4204, "stationHolders": ["MET.NO", "AVINOR"], "externalIds": ["01452", "10.249.0.47", "ENCN"], "icaoCodes": ["ENCN"], "wigosId": "0-20000-0-01452"}, {"@type": "SensorSystem", "id": "SN95350", "name": "BANAK", "shortName": "Banak", "country": "Norge", "countryCode": "NO", "wmoId": 1059, "geometry": {"@type": "Point", "coordinates": [24.99, 70.06], "nearest": false}, "masl": 5, "validFrom": "1945-08-01T00:00:00.000Z", "county": "TROMS OG FINNMARK", "countyId": 54, "municipality": "PORSANGER", "municipalityId": 5436, "stationHolders": ["AVINOR"], "externalIds": ["01059", "10.249.0.51", "ENNA"], "icaoCodes": ["ENNA"], "wigosId": "0-20000-0-01059"}, {"@type": "SensorSystem", "id": "SN76922", "name": "STATFJORD A", "shortName": "Statfjord A", "country": "Norge", "countryCode": "NO", "wmoId": 1399, "geometry": {"@type": "Point", "coordinates": [1.8522, 61.2553], "nearest": false}, "masl": 118, "validFrom": "1978-01-01T00:00:00.000Z", "county": "NORDSJ\u00d8EN", "countyId": 26, "municipality": "NORDSJ\u00d8EN", "municipalityId": 2600, "stationHolders": ["STATOIL ASA"], "externalIds": ["ENSF", "LF6L"], "icaoCodes": ["ENSF"], "shipCodes": ["LF6L"], "wigosId": "0-20000-0-01399"}, {"@type": "SensorSystem", "id": "SN69655", "name": "FROSTA", "shortName": "Frosta", "country": "Norge", "countryCode": "NO", "wmoId": 1272, "geometry": {"@type": "Point", "coordinates": [10.6932, 63.5652], "nearest": false}, "masl": 32, "validFrom": "1989-12-01T00:00:00.000Z", "county": "TR\u00d8NDELAG", "countyId": 50, "municipality": "FROSTA", "municipalityId": 5036, "stationHolders": ["NIBIO"], "externalIds": ["01272", "1272", "4"], "wigosId": "0-20000-0-01272"}, {"@type": "SensorSystem", "id": "SN84970", "name": "EVENES LUFTHAVN", "shortName": "Evenes LH", "country": "Norge", "countryCode": "NO", "wmoId": 1183, "geometry": {"@type": "Point", "coordinates": [16.6833, 68.4912], "nearest": false}, "masl": 26, "validFrom": "1973-07-01T00:00:00.000Z", "county": "NORDLAND", "countyId": 18, "municipality": "EVENES", "municipalityId": 1853, "stationHolders": ["AVINOR"], "externalIds": ["01183", "10.249.0.176", "10.249.0.38", "ENEV"], "icaoCodes": ["ENEV"], "wigosId": "0-20000-0-01183"}, {"@type": "SensorSystem", "id": "SN45350", "name": "LYSEBOTN", "shortName": "Lysebotn", "country": "Norge", "countryCode": "NO", "geometry": {"@type": "Point", "coordinates": [6.6467, 59.0552], "nearest": false}, "masl": 5, "validFrom": "1895-01-01T00:00:00.000Z", "county": "ROGALAND", "countyId": 11, "municipality": "SANDNES", "municipalityId": 1108, "stationHolders": ["LYSE PRODUKSJON AS"], "externalIds": ["10.249.0.157"], "wigosId": "0-578-0-45350"}, {"@type": "SensorSystem", "id": "SN47300", "name": "UTSIRA FYR", "shortName": "Utsira", "country": "Norge", "countryCode": "NO", "wmoId": 1403, "geometry": {"@type": "Point", "coordinates": [4.8723, 59.3065], "nearest": false}, "masl": 55, "validFrom": "1860-01-01T00:00:00.000Z", "county": "ROGALAND", "countyId": 11, "municipality": "UTSIRA", "municipalityId": 1151, "stationHolders": ["MET.NO"], "externalIds": ["01403", "10.249.0.16"], "wigosId": "0-20000-0-01403"}, {"@type": "SensorSystem", "id": "SN60500", "name": "TAFJORD", "shortName": "Tafjord", "country": "Norge", "countryCode": "NO", "wmoId": 1218, "geometry": {"@type": "Point", "coordinates": [7.4218, 62.2305], "nearest": false}, "masl": 11, "validFrom": "1925-01-01T00:00:00.000Z", "county": "M\u00d8RE OG ROMSDAL", "countyId": 15, "municipality": "NORDDAL", "municipalityId": 1524, "stationHolders": ["MET.NO"], "externalIds": ["01218", "10.249.0.141"], "wigosId": "0-20000-0-01218"}, {"@type": "SensorSystem", "id": "SN55700", "name": "SOGNDAL LUFTHAMN", "shortName": "Sogndal LH", "country": "Norge", "countryCode": "NO", "wmoId": 1347, "geometry": {"@type": "Point", "coordinates": [7.1413, 61.158], "nearest": false}, "masl": 497, "validFrom": "1971-06-01T00:00:00.000Z", "county": "VESTLAND", "countyId": 46, "municipality": "SOGNDAL", "municipalityId": 4640, "stationHolders": ["AVINOR"], "externalIds": ["01347", "10.249.0.61", "ENSG"], "icaoCodes": ["ENSG"], "wigosId": "0-20000-0-01347"}, {"@type": "SensorSystem", "id": "SN98400", "name": "MAKKAUR FYR", "shortName": "Makkaur fyr", "country": "Norge", "countryCode": "NO", "wmoId": 1092, "geometry": {"@type": "Point", "coordinates": [30.07, 70.7057], "nearest": false}, "masl": 9, "validFrom": "1924-01-01T00:00:00.000Z", "county": "TROMS OG FINNMARK", "countyId": 54, "municipality": "B\u00c5TSFJORD", "municipalityId": 5443, "stationHolders": ["MET.NO"], "externalIds": ["01092"], "wigosId": "0-20000-0-01092"}, {"@type": "SensorSystem", "id": "SN84900", "name": "BJ\u00d8RNFJELL", "shortName": "Bj\u00f8rnfjell", "country": "Norge", "countryCode": "NO", "geometry": {"@type": "Point", "coordinates": [18.0767, 68.4323], "nearest": false}, "masl": 512, "validFrom": "1922-12-08T00:00:00.000Z", "county": "NORDLAND", "countyId": 18, "municipality": "NARVIK", "municipalityId": 1806, "stationHolders": ["BANE NOR"], "wigosId": "0-578-0-84900"}, {"@type": "SensorSystem", "id": "SN40250", "name": "VALLE", "shortName": "Valle", "country": "Norge", "countryCode": "NO", "wmoId": 1444, "geometry": {"@type": "Point", "coordinates": [7.5273, 59.1972], "nearest": false}, "masl": 308, "validFrom": "1872-01-01T00:00:00.000Z", "county": "AGDER", "countyId": 42, "municipality": "VALLE", "municipalityId": 4221, "stationHolders": ["MET.NO"], "externalIds": ["01444", "10.249.0.169"], "wigosId": "0-20000-0-01444"}, {"@type": "SensorSystem", "id": "SN8140", "name": "EVENSTAD", "shortName": "Evenstad", "country": "Norge", "countryCode": "NO", "wmoId": 1383, "geometry": {"@type": "Point", "coordinates": [11.0803, 61.4255], "nearest": false}, "masl": 257, "validFrom": "2001-10-27T00:00:00.000Z", "county": "INNLANDET", "countyId": 34, "municipality": "STOR-ELVDAL", "municipalityId": 3423, "stationHolders": ["MET.NO"], "externalIds": ["01383"]}, {"@type": "SensorSystem", "id": "SN42810", "name": "TONSTAD - NETTFED", "shortName": "Tonstad (\u00d8st)", "country": "Norge", "countryCode": "NO", "geometry": {"@type": "Point", "coordinates": [6.709, 58.6642], "nearest": false}, "masl": 55, "validFrom": "1972-01-01T00:00:00.000Z", "county": "AGDER", "countyId": 42, "municipality": "SIRDAL", "municipalityId": 4228, "stationHolders": ["SIRA-KVINA KRAFTSELSKAP"], "wigosId": "0-578-0-42810"}, {"@type": "SensorSystem", "id": "SN51800", "name": "MJ\u00d8LFJELL UH", "shortName": "Mj\u00f8lfjell", "country": "Norge", "countryCode": "NO", "wmoId": 1344, "geometry": {"@type": "Point", "coordinates": [6.9373, 60.7022], "nearest": false}, "masl": 695, "validFrom": "1999-06-01T00:00:00.000Z", "county": "VESTLAND", "countyId": 46, "municipality": "VOSS", "municipalityId": 4621, "stationHolders": ["MET.NO"], "externalIds": ["01344", "10.249.0.132"], "wigosId": "0-20000-0-01344"}, {"@type": "SensorSystem", "id": "SN99754", "name": "HORNSUND", "shortName": "Hornsund", "country": "Svalbard og Jan Mayen", "countryCode": "SJ", "wmoId": 1003, "geometry": {"@type": "Point", "coordinates": [15.5358, 77.0017], "nearest": false}, "masl": 10, "validFrom": "1985-06-01T00:00:00.000Z", "county": "SVALBARD", "countyId": 21, "municipality": "SVALBARD", "municipalityId": 2100, "stationHolders": ["DEN POLSKE FORSKNINGSSTASJONEN"], "externalIds": ["01003", "300125010101770"], "wigosId": "0-20000-0-01003"}, {"@type": "SensorSystem", "id": "SN55290", "name": "SOGNEFJELLHYTTA", "shortName": "Sognefjellhytta", "country": "Norge", "countryCode": "NO", "wmoId": 1366, "geometry": {"@type": "Point", "coordinates": [7.9957, 61.5648], "nearest": false}, "masl": 1413, "validFrom": "1978-12-01T00:00:00.000Z", "county": "INNLANDET", "countyId": 34, "municipality": "LOM", "municipalityId": 3434, "stationHolders": ["MET.NO", "NVE"], "externalIds": ["01366", "10.249.0.181", "75.93"], "wigosId": "0-20000-0-01366"}, {"@type": "SensorSystem", "id": "SN19710", "name": "ASKER", "shortName": "Asker - Sem", "country": "Norge", "countryCode": "NO", "wmoId": 1486, "geometry": {"@type": "Point", "coordinates": [10.4358, 59.8558], "nearest": false}, "masl": 163, "validFrom": "1913-01-01T00:00:00.000Z", "county": "VIKEN", "countyId": 30, "municipality": "ASKER", "municipalityId": 3025, "stationHolders": ["MET.NO"], "externalIds": ["01486", "10.249.0.193", "501151120"]}, {"@type": "SensorSystem", "id": "SN30650", "name": "NOTODDEN FLYPLASS", "shortName": "Notodden flypl", "country": "Norge", "countryCode": "NO", "wmoId": 1479, "geometry": {"@type": "Point", "coordinates": [9.2105, 59.5667], "nearest": false}, "masl": 20, "validFrom": "1970-03-05T00:00:00.000Z", "county": "VESTFOLD OG TELEMARK", "countyId": 38, "municipality": "NOTODDEN", "municipalityId": 3808, "stationHolders": ["NOTODDEN LUFTHAVN"], "externalIds": ["10.249.0.9", "1479", "ENNO"], "icaoCodes": ["ENNO"], "wigosId": "0-578-0-30650"}, {"@type": "SensorSystem", "id": "SN24890", "name": "NESBYEN - TODOKK", "shortName": "Nesbyen", "country": "Norge", "countryCode": "NO", "wmoId": 1373, "geometry": {"@type": "Point", "coordinates": [9.1323, 60.567], "nearest": false}, "masl": 166, "validFrom": "2003-11-17T00:00:00.000Z", "county": "VIKEN", "countyId": 30, "municipality": "NESBYEN", "municipalityId": 3040, "stationHolders": ["MET.NO"], "externalIds": ["01373", "10.249.0.212"], "wigosId": "0-20000-0-01373"}, {"@type": "SensorSystem", "id": "SN17850", "name": "\u00c5S", "shortName": "\u00c5s (NMBU)", "country": "Norge", "countryCode": "NO", "wmoId": 1463, "geometry": {"@type": "Point", "coordinates": [10.7818, 59.6605], "nearest": false}, "masl": 92, "validFrom": "1874-01-01T00:00:00.000Z", "county": "VIKEN", "countyId": 30, "municipality": "\u00c5S", "municipalityId": 3021, "stationHolders": ["MET.NO", "NORGES MILJ\u00d8- OG BIOVITENSKAPELIGE UNIVERSITET"], "externalIds": ["01463", "1463"], "wigosId": "0-20000-0-01463"}, {"@type": "SensorSystem", "id": "SN85560", "name": "LEKNES LUFTHAVN", "shortName": "Leknes LH", "country": "Norge", "countryCode": "NO", "wmoId": 1141, "geometry": {"@type": "Point", "coordinates": [13.615, 68.155], "nearest": false}, "masl": 26, "validFrom": "1972-06-01T00:00:00.000Z", "county": "NORDLAND", "countyId": 18, "municipality": "VESTV\u00c5G\u00d8Y", "municipalityId": 1860, "stationHolders": ["MET.NO", "AVINOR"], "externalIds": ["01141", "10.249.0.17", "10.249.0.177", "ENLK"], "icaoCodes": ["ENLK"], "wigosId": "0-20000-0-01141"}, {"@type": "SensorSystem", "id": "SN5660", "name": "ROVERUD", "shortName": "Roverud", "country": "Norge", "countryCode": "NO", "geometry": {"@type": "Point", "coordinates": [12.0913, 60.2537], "nearest": false}, "masl": 170, "validFrom": "1991-01-01T00:00:00.000Z", "county": "INNLANDET", "countyId": 34, "municipality": "KONGSVINGER", "municipalityId": 3401, "stationHolders": ["NIBIO"], "externalIds": ["11", "1472"], "wigosId": "0-578-0-5660"}, {"@type": "SensorSystem", "id": "SN26950", "name": "SVELVIK - KNEM", "shortName": "Svelvik - Knem", "country": "Norge", "countryCode": "NO", "geometry": {"@type": "Point", "coordinates": [10.4047, 59.6027], "nearest": false}, "masl": 4, "validFrom": "2005-01-01T00:00:00.000Z", "county": "VIKEN", "countyId": 30, "municipality": "DRAMMEN", "municipalityId": 3005, "stationHolders": ["NIBIO"], "externalIds": ["74"]}, {"@type": "SensorSystem", "id": "SN76932", "name": "HEIMDAL", "shortName": "Heimdal", "country": "Norge", "countryCode": "NO", "wmoId": 1404, "geometry": {"@type": "Point", "coordinates": [2.2273, 59.5742], "nearest": false}, "masl": 59, "validFrom": "2003-01-01T00:00:00.000Z", "county": "NORDSJ\u00d8EN", "countyId": 26, "municipality": "NORDSJ\u00d8EN", "municipalityId": 2600, "stationHolders": ["STATOIL ASA"], "externalIds": ["1404", "ENHM", "LF4H"], "icaoCodes": ["ENHM"], "shipCodes": ["LF4H"], "wigosId": "0-578-0-76932"}, {"@type": "SensorSystem", "id": "SN18950", "name": "TRYVANNSH\u00d8GDA", "shortName": "Tryvannsh\u00f8gda", "country": "Norge", "countryCode": "NO", "wmoId": 1490, "geometry": {"@type": "Point", "coordinates": [10.6693, 59.9847], "nearest": false}, "masl": 514, "validFrom": "1927-08-01T00:00:00.000Z", "county": "OSLO", "countyId": 3, "municipality": "OSLO", "municipalityId": 301, "stationHolders": ["MET.NO"], "externalIds": ["01490", "10.249.0.2"], "wigosId": "0-20000-0-01490"}, {"@type": "SensorSystem", "id": "SN69150", "name": "KVITHAMAR", "shortName": "Kvithamar", "country": "Norge", "countryCode": "NO", "wmoId": 1270, "geometry": {"@type": "Point", "coordinates": [10.8795, 63.4882], "nearest": false}, "masl": 27, "validFrom": "1987-05-12T00:00:00.000Z", "county": "TR\u00d8NDELAG", "countyId": 50, "municipality": "STJ\u00d8RDAL", "municipalityId": 5035, "stationHolders": ["NIBIO"], "externalIds": ["01270", "1270", "29"], "wigosId": "0-20000-0-01270"}, {"@type": "SensorSystem", "id": "SN58070", "name": "SANDANE", "shortName": "Sandane", "country": "Norge", "countryCode": "NO", "geometry": {"@type": "Point", "coordinates": [6.1837, 61.788], "nearest": false}, "masl": 51, "validFrom": "1957-06-01T00:00:00.000Z", "county": "VESTLAND", "countyId": 46, "municipality": "GLOPPEN", "municipalityId": 4650, "stationHolders": ["MET.NO"], "externalIds": ["01318"]}, {"@type": "SensorSystem", "id": "SN99735", "name": "EDGE\u00d8YA - KAPP HEUGLIN", "shortName": "Edge\u00f8ya", "country": "Svalbard og Jan Mayen", "countryCode": "SJ", "wmoId": 1006, "geometry": {"@type": "Point", "coordinates": [22.8225, 78.2508], "nearest": false}, "masl": 14, "validFrom": "1992-09-03T00:00:00.000Z", "county": "SVALBARD", "countyId": 21, "municipality": "SVALBARD", "municipalityId": 2100, "stationHolders": ["MET.NO"], "externalIds": ["01006", "300134010717180", "300234011935560"], "wigosId": "0-20000-0-01006"}, {"@type": "SensorSystem", "id": "SN51440", "name": "EVANGER", "shortName": "Evanger", "country": "Norge", "countryCode": "NO", "wmoId": 1315, "geometry": {"@type": "Point", "coordinates": [6.1105, 60.647], "nearest": false}, "masl": 17, "validFrom": "2010-12-13T00:00:00.000Z", "county": "VESTLAND", "countyId": 46, "municipality": "VOSS", "municipalityId": 4621, "stationHolders": ["BANE NOR"], "externalIds": ["01315", "10.249.0.101"], "wigosId": "0-20000-0-01315"}, {"@type": "SensorSystem", "id": "SN25110", "name": "HEMSEDAL II", "shortName": "Hemsedal", "country": "Norge", "countryCode": "NO", "wmoId": 1358, "geometry": {"@type": "Point", "coordinates": [8.593, 60.8548], "nearest": false}, "masl": 604, "validFrom": "2005-11-14T00:00:00.000Z", "county": "VIKEN", "countyId": 30, "municipality": "HEMSEDAL", "municipalityId": 3042, "stationHolders": ["MET.NO"], "externalIds": ["01358", "10.249.0.235", "10.249.0.45", "1358"], "wigosId": "0-20000-0-01358"}, {"@type": "SensorSystem", "id": "SN91430", "name": "RIHPOJAVRI", "shortName": "Rieppi", "country": "Norge", "countryCode": "NO", "geometry": {"@type": "Point", "coordinates": [20.5795, 69.2235], "nearest": false}, "masl": 502, "validFrom": "2003-10-13T00:00:00.000Z", "county": "TROMS OG FINNMARK", "countyId": 54, "municipality": "STORFJORD", "municipalityId": 5425, "stationHolders": ["MET.NO"], "externalIds": ["10.249.0.124"], "wigosId": "0-578-0-91430"}, {"@type": "SensorSystem", "id": "SN88200", "name": "SENJA - LAUKHELLA", "shortName": "Laukhella", "country": "Norge", "countryCode": "NO", "geometry": {"@type": "Point", "coordinates": [17.9008, 69.2342], "nearest": false}, "masl": 9, "validFrom": "1997-08-01T00:00:00.000Z", "county": "TROMS OG FINNMARK", "countyId": 54, "municipality": "SENJA", "municipalityId": 5421, "stationHolders": ["MET.NO"], "externalIds": ["13"], "wigosId": "0-578-0-88200"}, {"@type": "SensorSystem", "id": "SN42650", "name": "FLEKKEFJORD", "shortName": "Flekkefjord", "country": "Norge", "countryCode": "NO", "geometry": {"@type": "Point", "coordinates": [6.6498, 58.28415], "nearest": false}, "masl": 5, "validFrom": "1940-11-01T00:00:00.000Z", "county": "AGDER", "countyId": 42, "municipality": "FLEKKEFJORD", "municipalityId": 4207, "stationHolders": ["MET.NO"], "wigosId": "0-578-0-42650"}, {"@type": "SensorSystem", "id": "SN4460", "name": "HAKADAL JERNBANESTASJON", "shortName": "Hakadal", "country": "Norge", "countryCode": "NO", "wmoId": 1488, "geometry": {"@type": "Point", "coordinates": [10.829, 60.1173], "nearest": false}, "masl": 170, "validFrom": "2007-01-08T00:00:00.000Z", "county": "VIKEN", "countyId": 30, "municipality": "NITTEDAL", "municipalityId": 3031, "stationHolders": ["BANE NOR"], "externalIds": ["01488", "10.249.0.66"], "wigosId": "0-20000-0-01488"}, {"@type": "SensorSystem", "id": "SN64870", "name": "T\u00c5GDALEN", "shortName": "T\u00e5gdalen", "country": "Norge", "countryCode": "NO", "wmoId": 1221, "geometry": {"@type": "Point", "coordinates": [9.0878, 63.0493], "nearest": false}, "masl": 410, "validFrom": "2007-11-21T00:00:00.000Z", "county": "M\u00d8RE OG ROMSDAL", "countyId": 15, "municipality": "SURNADAL", "municipalityId": 1566, "stationHolders": ["VITENSKAPSMUSEET NTNU"], "externalIds": ["01221"], "wigosId": "0-20000-0-01221"}, {"@type": "SensorSystem", "id": "SN87120", "name": "AND\u00d8YA - TROLLTINDEN", "shortName": "Trolltinden", "country": "Norge", "countryCode": "NO", "wmoId": 1018, "geometry": {"@type": "Point", "coordinates": [16.003, 69.2413], "nearest": false}, "masl": 436, "validFrom": "2007-08-01T00:00:00.000Z", "county": "NORDLAND", "countyId": 18, "municipality": "AND\u00d8Y", "municipalityId": 1871, "stationHolders": ["MET.NO"], "externalIds": ["01018", "1018", "157.249.146.50"], "wigosId": "0-20000-0-01018"}, {"@type": "SensorSystem", "id": "SN98580", "name": "VARD\u00d8 LUFTHAVN", "shortName": "Vard\u00f8 LH", "country": "Norge", "countryCode": "NO", "wmoId": 1099, "geometry": {"@type": "Point", "coordinates": [31.044, 70.3545], "nearest": false}, "masl": 12, "validFrom": "1998-10-07T00:00:00.000Z", "county": "TROMS OG FINNMARK", "countyId": 54, "municipality": "VARD\u00d8", "municipalityId": 5404, "stationHolders": ["AVINOR"], "externalIds": ["01099", "10.249.0.71", "ENSS"], "icaoCodes": ["ENSS"], "wigosId": "0-20000-0-01099"}, {"@type": "SensorSystem", "id": "SN76925", "name": "DRAUGEN", "shortName": "Draugen", "country": "Norge", "countryCode": "NO", "wmoId": 1202, "geometry": {"@type": "Point", "coordinates": [7.77915, 64.352], "nearest": false}, "masl": 55, "validFrom": "1993-10-01T00:00:00.000Z", "county": "NORSKEHAVET", "countyId": 24, "municipality": "NORSKEHAVET", "municipalityId": 2400, "stationHolders": ["OKEA AS"], "externalIds": ["1202", "ENDR", "LF3F"], "icaoCodes": ["ENDR"], "shipCodes": ["LF3F"], "wigosId": "0-578-0-76925"}, {"@type": "SensorSystem", "id": "SN75220", "name": "R\u00d8RVIK LUFTHAVN", "shortName": "R\u00f8rvik", "country": "Norge", "countryCode": "NO", "wmoId": 1282, "geometry": {"@type": "Point", "coordinates": [11.1408, 64.835], "nearest": false}, "masl": 4, "validFrom": "1989-01-01T00:00:00.000Z", "county": "TR\u00d8NDELAG", "countyId": 50, "municipality": "N\u00c6R\u00d8YSUND", "municipalityId": 5060, "stationHolders": ["AVINOR"], "externalIds": ["01282", "10.249.0.32", "ENRM"], "icaoCodes": ["ENRM"], "wigosId": "0-20000-0-01282"}, {"@type": "SensorSystem", "id": "SN77230", "name": "MOSJ\u00d8EN LUFTHAVN", "shortName": "Mosj\u00f8en LH", "country": "Norge", "countryCode": "NO", "wmoId": 1122, "geometry": {"@type": "Point", "coordinates": [13.218, 65.7842], "nearest": false}, "masl": 72, "validFrom": "1987-01-01T00:00:00.000Z", "county": "NORDLAND", "countyId": 18, "municipality": "VEFSN", "municipalityId": 1824, "stationHolders": ["AVINOR", "MET.NO"], "externalIds": ["01122", "10.249.0.15", "ENMS"], "icaoCodes": ["ENMS"], "wigosId": "0-20000-0-01122"}, {"@type": "SensorSystem", "id": "SN79700", "name": "STORFORSHEI", "shortName": "Storforshei", "country": "Norge", "countryCode": "NO", "wmoId": 1148, "geometry": {"@type": "Point", "coordinates": [14.53, 66.3962], "nearest": false}, "masl": 110, "validFrom": "2011-06-09T00:00:00.000Z", "county": "NORDLAND", "countyId": 18, "municipality": "RANA", "municipalityId": 1833, "stationHolders": ["BANE NOR"], "externalIds": ["01148", "10.249.0.82"], "wigosId": "0-20000-0-01148"}, {"@type": "SensorSystem", "id": "SN84500", "name": "STRAUMSNES", "shortName": "Straumsnes", "country": "Norge", "countryCode": "NO", "wmoId": 1192, "geometry": {"@type": "Point", "coordinates": [17.662, 68.432], "nearest": false}, "masl": 200, "validFrom": "2011-01-25T00:00:00.000Z", "county": "NORDLAND", "countyId": 18, "municipality": "NARVIK", "municipalityId": 1806, "stationHolders": ["BANE NOR"], "externalIds": ["01192", "10.249.0.129"], "wigosId": "0-20000-0-01192"}, {"@type": "SensorSystem", "id": "SN28922", "name": "VEGGLI II", "shortName": "Veggli", "country": "Norge", "countryCode": "NO", "wmoId": 1471, "geometry": {"@type": "Point", "coordinates": [9.1468, 60.0435], "nearest": false}, "masl": 275, "validFrom": "2006-07-05T00:00:00.000Z", "county": "VIKEN", "countyId": 30, "municipality": "ROLLAG", "municipalityId": 3051, "stationHolders": ["MET.NO"], "externalIds": ["01471"], "wigosId": "0-20000-0-01471"}, {"@type": "SensorSystem", "id": "SN47350", "name": "R\u00d8V\u00c6R", "shortName": "R\u00f8v\u00e6r ", "country": "Norge", "countryCode": "NO", "wmoId": 1414, "geometry": {"@type": "Point", "coordinates": [5.078, 59.4382], "nearest": false}, "masl": 25, "validFrom": "2011-04-14T00:00:00.000Z", "county": "ROGALAND", "countyId": 11, "municipality": "HAUGESUND", "municipalityId": 1106, "stationHolders": ["MET.NO"], "externalIds": ["01414", "10.249.0.161"], "wigosId": "0-20000-0-01414"}, {"@type": "SensorSystem", "id": "SN44300", "name": "S\u00c6RHEIM", "shortName": "S\u00e6rheim", "country": "Norge", "countryCode": "NO", "wmoId": 1413, "geometry": {"@type": "Point", "coordinates": [5.6508, 58.7605], "nearest": false}, "masl": 87, "validFrom": "1987-01-01T00:00:00.000Z", "county": "ROGALAND", "countyId": 11, "municipality": "KLEPP", "municipalityId": 1120, "stationHolders": ["NIBIO"], "externalIds": ["01413", "1413", "25"], "wigosId": "0-20000-0-01413"}, {"@type": "SensorSystem", "id": "SN76933", "name": "ORMEN LANGE", "shortName": "Ormen Lange", "country": "Norge", "countryCode": "NO", "geometry": {"@type": "Point", "coordinates": [5, 63.5], "nearest": false}, "validFrom": "2007-09-12T00:00:00.000Z", "county": "NORSKEHAVET", "countyId": 24, "municipality": "NORSKEHAVET", "municipalityId": 2400, "stationHolders": ["NORSKE SHELL"], "externalIds": ["1302", "3ERR2", "6301001", "BUOY1", "LIPI"], "shipCodes": ["3ERR2", "6301001", "BUOY1", "LIPI"], "wigosId": "0-578-0-76933"}, {"@type": "SensorSystem", "id": "SN9160", "name": "FOLLDAL - FREDHEIM", "shortName": "Folldal ", "country": "Norge", "countryCode": "NO", "wmoId": 1250, "geometry": {"@type": "Point", "coordinates": [9.9947, 62.1282], "nearest": false}, "masl": 694, "validFrom": "2011-02-11T00:00:00.000Z", "county": "INNLANDET", "countyId": 34, "municipality": "FOLLDAL", "municipalityId": 3429, "stationHolders": ["Private owner"], "externalIds": ["01250", "212.169.107.105"], "wigosId": "0-20000-0-01250"}, {"@type": "SensorSystem", "id": "SN94500", "name": "FRUHOLMEN FYR", "shortName": "Fruholmen fyr", "country": "Norge", "countryCode": "NO", "wmoId": 1055, "geometry": {"@type": "Point", "coordinates": [23.9817, 71.0937], "nearest": false}, "masl": 13, "validFrom": "1867-09-01T00:00:00.000Z", "county": "TROMS OG FINNMARK", "countyId": 54, "municipality": "M\u00c5S\u00d8Y", "municipalityId": 5434, "stationHolders": ["MET.NO"], "externalIds": ["01055", "10.249.0.171"], "wigosId": "0-20000-0-01055"}, {"@type": "SensorSystem", "id": "SN6020", "name": "FLISA II", "shortName": "Flisa", "country": "Norge", "countryCode": "NO", "wmoId": 1392, "geometry": {"@type": "Point", "coordinates": [12.0125, 60.6142], "nearest": false}, "masl": 185, "validFrom": "2003-11-17T00:00:00.000Z", "county": "INNLANDET", "countyId": 34, "municipality": "\u00c5SNES", "municipalityId": 3418, "stationHolders": ["MET.NO"], "externalIds": ["01392", "10.249.1.156"], "wigosId": "0-20000-0-01392"}, {"@type": "SensorSystem", "id": "SN54710", "name": "FILEFJELL - KYRKJEST\u00d8LANE", "shortName": "Filefjell", "country": "Norge", "countryCode": "NO", "wmoId": 1364, "geometry": {"@type": "Point", "coordinates": [8.1125, 61.178], "nearest": false}, "masl": 956, "validFrom": "1967-01-01T00:00:00.000Z", "county": "INNLANDET", "countyId": 34, "municipality": "VANG", "municipalityId": 3454, "stationHolders": ["MET.NO"], "externalIds": ["01364", "10.249.0.149", "73.11"], "wigosId": "0-20000-0-01364"}, {"@type": "SensorSystem", "id": "SN15270", "name": "JUVVASSH\u00d8E", "shortName": "Juvvassh\u00f8e", "country": "Norge", "countryCode": "NO", "wmoId": 1362, "geometry": {"@type": "Point", "coordinates": [8.369, 61.6775], "nearest": false}, "masl": 1894, "validFrom": "1999-09-17T00:00:00.000Z", "county": "INNLANDET", "countyId": 34, "municipality": "LOM", "municipalityId": 3434, "stationHolders": ["MET.NO"], "externalIds": ["01362", "10.249.0.134", "10.249.0.183", "10.249.0.184"], "wigosId": "0-20000-0-01362"}, {"@type": "SensorSystem", "id": "SN85890", "name": "R\u00d8ST LUFTHAVN", "shortName": "R\u00f8st", "country": "Norge", "countryCode": "NO", "wmoId": 1107, "geometry": {"@type": "Point", "coordinates": [12.1038, 67.5267], "nearest": false}, "masl": 4, "validFrom": "1986-07-01T00:00:00.000Z", "county": "NORDLAND", "countyId": 18, "municipality": "R\u00d8ST", "municipalityId": 1856, "stationHolders": ["AVINOR", "MET.NO"], "externalIds": ["01107", "10.249.0.180", "ENRS"], "icaoCodes": ["ENRS"], "wigosId": "0-20000-0-01107"}, {"@type": "SensorSystem", "id": "SN59800", "name": "SVIN\u00d8Y FYR", "shortName": "Svin\u00f8y fyr", "country": "Norge", "countryCode": "NO", "wmoId": 1205, "geometry": {"@type": "Point", "coordinates": [5.268, 62.3293], "nearest": false}, "masl": 38, "validFrom": "1955-06-01T00:00:00.000Z", "county": "M\u00d8RE OG ROMSDAL", "countyId": 15, "municipality": "HER\u00d8Y", "municipalityId": 1515, "stationHolders": ["MET.NO"], "externalIds": ["01205", "10.249.1.56"], "wigosId": "0-20000-0-01205"}, {"@type": "SensorSystem", "id": "SN73550", "name": "GARTLAND", "shortName": "Gartland", "country": "Norge", "countryCode": "NO", "wmoId": 1291, "geometry": {"@type": "Point", "coordinates": [12.3837, 64.531], "nearest": false}, "masl": 95, "validFrom": "2007-12-15T00:00:00.000Z", "county": "TR\u00d8NDELAG", "countyId": 50, "municipality": "GRONG", "municipalityId": 5045, "stationHolders": ["BANE NOR"], "externalIds": ["01291", "10.249.0.77"], "wigosId": "0-20000-0-01291"}, {"@type": "SensorSystem", "id": "SN75410", "name": "NORD\u00d8YAN FYR", "shortName": "Nord\u00f8yan fyr", "country": "Norge", "countryCode": "NO", "wmoId": 1262, "geometry": {"@type": "Point", "coordinates": [10.5493, 64.7977], "nearest": false}, "masl": 33, "validFrom": "1890-12-01T00:00:00.000Z", "county": "TR\u00d8NDELAG", "countyId": 50, "municipality": "N\u00c6R\u00d8YSUND", "municipalityId": 5060, "stationHolders": ["MET.NO"], "externalIds": ["01262", "10.249.0.119", "300125061929020"], "wigosId": "0-20000-0-01262"}, {"@type": "SensorSystem", "id": "SN52535", "name": "FEDJE", "shortName": "Fedje", "country": "Norge", "countryCode": "NO", "wmoId": 1307, "geometry": {"@type": "Point", "coordinates": [4.715, 60.7525], "nearest": false}, "masl": 19, "validFrom": "2004-08-23T00:00:00.000Z", "county": "VESTLAND", "countyId": 46, "municipality": "FEDJE", "municipalityId": 4633, "stationHolders": ["MET.NO"], "externalIds": ["01307", "10.249.0.205"], "wigosId": "0-20000-0-01307"}, {"@type": "SensorSystem", "id": "SN90450", "name": "TROMS\u00d8", "shortName": "Troms\u00f8", "country": "Norge", "countryCode": "NO", "wmoId": 1026, "geometry": {"@type": "Point", "coordinates": [18.9368, 69.6536], "nearest": false}, "masl": 100, "validFrom": "1895-08-01T00:00:00.000Z", "county": "TROMS OG FINNMARK", "countyId": 54, "municipality": "TROMS\u00d8", "municipalityId": 5401, "stationHolders": ["MET.NO"], "externalIds": ["01026", "1"], "wigosId": "0-20000-0-01026"}, {"@type": "SensorSystem", "id": "SN34130", "name": "JOMFRULAND", "shortName": "Jomfruland", "country": "Norge", "countryCode": "NO", "wmoId": 1476, "geometry": {"@type": "Point", "coordinates": [9.5745, 58.8565], "nearest": false}, "masl": 3, "validFrom": "1994-08-24T00:00:00.000Z", "county": "VESTFOLD OG TELEMARK", "countyId": 38, "municipality": "KRAGER\u00d8", "municipalityId": 3814, "stationHolders": ["MET.NO"], "externalIds": ["01476"], "wigosId": "0-20000-0-01476"}, {"@type": "SensorSystem", "id": "SN50070", "name": "KVAMS\u00d8Y", "shortName": "Kvams\u00f8y", "country": "Norge", "countryCode": "NO", "wmoId": 1329, "geometry": {"@type": "Point", "coordinates": [6.2805, 60.3631], "nearest": false}, "masl": 49, "validFrom": "2003-11-16T00:00:00.000Z", "county": "VESTLAND", "countyId": 46, "municipality": "KVAM", "municipalityId": 4622, "stationHolders": ["MET.NO"], "externalIds": ["01329"], "wigosId": "0-20000-0-01329"}, {"@type": "SensorSystem", "id": "SN80610", "name": "MYKEN", "shortName": "Myken", "country": "Norge", "countryCode": "NO", "wmoId": 1115, "geometry": {"@type": "Point", "coordinates": [12.486, 66.7628], "nearest": false}, "masl": 17, "validFrom": "1992-10-15T00:00:00.000Z", "county": "NORDLAND", "countyId": 18, "municipality": "R\u00d8D\u00d8Y", "municipalityId": 1836, "stationHolders": ["MET.NO"], "externalIds": ["01115", "10.249.0.230"], "wigosId": "0-20000-0-01115"}, {"@type": "SensorSystem", "id": "SN76928", "name": "HEIDRUN", "shortName": "Heidrun", "country": "Norge", "countryCode": "NO", "wmoId": 1201, "geometry": {"@type": "Point", "coordinates": [7.3156, 65.32285], "nearest": false}, "masl": 68, "validFrom": "1995-10-21T00:00:00.000Z", "county": "NORSKEHAVET", "countyId": 24, "municipality": "NORSKEHAVET", "municipalityId": 2400, "stationHolders": ["STATOIL ASA"], "externalIds": ["1201", "ENHE", "LF3N"], "icaoCodes": ["ENHE"], "shipCodes": ["LF3N"], "wigosId": "0-578-0-76928"}, {"@type": "SensorSystem", "id": "SN81650", "name": "SALTDAL - NORDNES", "shortName": "Saltdal", "country": "Norge", "countryCode": "NO", "wmoId": 1169, "geometry": {"@type": "Point", "coordinates": [15.3155, 66.9368], "nearest": false}, "masl": 39, "validFrom": "1997-06-01T00:00:00.000Z", "county": "NORDLAND", "countyId": 18, "municipality": "SALTDAL", "municipalityId": 1840, "stationHolders": ["MET.NO"], "externalIds": ["01169", "10.249.0.201", "10.249.1.61"], "wigosId": "0-20000-0-01169"}, {"@type": "SensorSystem", "id": "SN97710", "name": "ISKORAS II", "shortName": "I\u0161koras ", "country": "Norge", "countryCode": "NO", "wmoId": 1064, "geometry": {"@type": "Point", "coordinates": [25.346, 69.3003], "nearest": false}, "masl": 591, "validFrom": "2014-09-15T00:00:00.000Z", "county": "TROMS OG FINNMARK", "countyId": 54, "municipality": "KARASJOK", "municipalityId": 5437, "stationHolders": ["MET.NO"], "externalIds": ["01064", "10.249.1.32"], "wigosId": "0-20000-0-01064"}, {"@type": "SensorSystem", "id": "SN49800", "name": "FET I EIDFJORD", "shortName": "Fet i Eidfjord", "country": "Norge", "countryCode": "NO", "wmoId": 1340, "geometry": {"@type": "Point", "coordinates": [7.2798, 60.4085], "nearest": false}, "masl": 735, "validFrom": "1884-09-01T00:00:00.000Z", "county": "VESTLAND", "countyId": 46, "municipality": "EIDFJORD", "municipalityId": 4619, "stationHolders": ["MET.NO"], "externalIds": ["01340"], "wigosId": "0-20000-0-01340"}, {"@type": "SensorSystem", "id": "SN13150", "name": "F\u00c5VANG", "shortName": "F\u00e5vang", "country": "Norge", "countryCode": "NO", "wmoId": 1387, "geometry": {"@type": "Point", "coordinates": [10.1872, 61.4582], "nearest": false}, "masl": 200, "validFrom": "2009-11-18T00:00:00.000Z", "county": "INNLANDET", "countyId": 34, "municipality": "RINGEBU", "municipalityId": 3439, "stationHolders": ["NIBIO"], "externalIds": ["01387", "1387", "36"], "wigosId": "0-20000-0-01387"}, {"@type": "SensorSystem", "id": "SN5590", "name": "KONGSVINGER", "shortName": "Kongsvinger", "country": "Norge", "countryCode": "NO", "wmoId": 1468, "geometry": {"@type": "Point", "coordinates": [12.0067, 60.1903], "nearest": false}, "masl": 148, "validFrom": "2006-07-01T00:00:00.000Z", "county": "INNLANDET", "countyId": 34, "municipality": "KONGSVINGER", "municipalityId": 3401, "stationHolders": ["MET.NO"], "externalIds": ["01468"], "wigosId": "0-20000-0-01468"}, {"@type": "SensorSystem", "id": "SN24960", "name": "GOL - STAKE", "shortName": "Gol", "country": "Norge", "countryCode": "NO", "geometry": {"@type": "Point", "coordinates": [8.9478, 60.7188], "nearest": false}, "masl": 542, "validFrom": "1963-12-01T00:00:00.000Z", "county": "VIKEN", "countyId": 30, "municipality": "GOL", "municipalityId": 3041, "stationHolders": ["MET.NO"], "wigosId": "0-578-0-24960"}, {"@type": "SensorSystem", "id": "SN62480", "name": "ONA II", "shortName": "Ona", "country": "Norge", "countryCode": "NO", "wmoId": 1212, "geometry": {"@type": "Point", "coordinates": [6.5378, 62.8585], "nearest": false}, "masl": 20, "validFrom": "1978-09-01T00:00:00.000Z", "county": "M\u00d8RE OG ROMSDAL", "countyId": 15, "municipality": "\u00c5LESUND", "municipalityId": 1507, "stationHolders": ["MET.NO"], "externalIds": ["01212", "10.249.0.231"], "wigosId": "0-20000-0-01212"}, {"@type": "SensorSystem", "id": "SN41175", "name": "LAUDAL - KLEIVEN", "shortName": "Kleiven", "country": "Norge", "countryCode": "NO", "wmoId": 1439, "geometry": {"@type": "Point", "coordinates": [7.4388, 58.2772], "nearest": false}, "masl": 280, "validFrom": "2016-06-17T00:00:00.000Z", "county": "AGDER", "countyId": 42, "municipality": "LINDESNES", "municipalityId": 4205, "stationHolders": ["MET.NO"], "externalIds": ["1439"], "wigosId": "0-20000-0-01439"}, {"@type": "SensorSystem", "id": "SN16610", "name": "FOKSTUGU", "shortName": "Fokstugu", "country": "Norge", "countryCode": "NO", "wmoId": 1238, "geometry": {"@type": "Point", "coordinates": [9.2862, 62.1133], "nearest": false}, "masl": 973, "validFrom": "1968-06-01T00:00:00.000Z", "county": "INNLANDET", "countyId": 34, "municipality": "DOVRE", "municipalityId": 3431, "stationHolders": ["MET.NO"], "externalIds": ["01238", "10.249.0.158"], "wigosId": "0-20000-0-01238"}]